1354234561891984130;metadata_log_format;3 # nanosecond timing
1354234561892411376;metadata_system_time;1354234561892
1354234561892747069;metadata_surveyName;/sdcard/LocationTracker/1354234561876.txt
1354234561893265868;metadata_notes;
1354234561893632079;metadata_deviceInfo;Board: bryce Brand: Verizon Device: bryce Hardware: qcom Manufacturer: LGE Model: VS910 4G Product: bryce
1354234548964000000;latLngE7LastKnown;378754280 -1222587721 45.0 -1.0 -1.0
1354234561953019282;compass/AK8973 Magnetic Field;22.25 -9.75 34.3125 3
1354234561952988282;orientation/AK8973 Compass;247.0 -0.171875 0.25 1
1354234561952988282;accel/kr3dh;0.040861044 0.027240695 9.765789 3
1354234561952988282;linaccel/Linear Acceleration Sensor;0.0 0.0 0.0 3
1354234561956000000;latLngE7Network;378754280 -1222587721 45.0 -1.0 -1.0
1354234562032731201;wifi;00:17:df:a7:33:12,UNKNOWN,-78 00:23:04:89:cd:b2,UNKNOWN,-78 00:17:df:a8:60:62,UNKNOWN,-83 00:17:df:a7:4c:f2,UNKNOWN,-85 00:23:04:89:cd:b5,UNKNOWN,-70 00:22:90:39:07:15,UNKNOWN,-80 00:17:df:a7:4c:f5,UNKNOWN,-82 00:17:df:a7:33:15,UNKNOWN,-78 00:17:df:a8:60:65,UNKNOWN,-83 00:23:04:89:cd:b0,UNKNOWN,-72 00:23:04:89:cd:b6,UNKNOWN,-72 00:22:90:39:07:16,UNKNOWN,-77 00:22:90:39:07:11,UNKNOWN,-77 00:17:df:a7:33:16,UNKNOWN,-78 00:17:df:a7:33:10,UNKNOWN,-78 00:22:90:39:07:10,UNKNOWN,-78 00:17:df:a7:33:11,UNKNOWN,-78 00:23:04:89:cd:b1,UNKNOWN,-79 00:17:df:a7:4c:f6,UNKNOWN,-81 00:17:df:a7:4c:f0,UNKNOWN,-83 00:17:df:a8:60:66,UNKNOWN,-84 00:17:df:a8:60:61,UNKNOWN,-84 
1354234562051438282;orientation/AK8973 Compass;247.0 -0.078125 0.21875 1
1354234562051438282;accel/kr3dh;0.040861044 0.013620348 9.847511 3
1354234562051438282;compass/AK8973 Magnetic Field;22.0 -9.25 34.5625 3
1354234562051438282;linaccel/Linear Acceleration Sensor;-7.4505806E-9 -0.013397663 0.08038521 3
1354234562147385282;accel/kr3dh;-0.027240695 -0.0 9.888372 3
1354234562147385282;compass/AK8973 Magnetic Field;22.25 -9.25 34.5625 3
1354234562147385282;linaccel/Linear Acceleration Sensor;-0.06707666 -0.025646476 0.113633156 3
1354234562147354282;orientation/AK8973 Compass;247.03125 0.0 -0.171875 1
1354234562223000000;rawNmea;$GPGSV,4,1,13,03,32,240,22,06,32,219,24,18,33,067,24,19,42,274,28*7A
1354234562228000000;rawNmea;$GPGSV,4,2,13,21,18,129,18,22,65,028,22,01,02,310,,09,10,040,*70
1354234562232000000;rawNmea;$GPGSV,4,3,13,11,17,310,,14,78,153,,24,13,047,,31,01,171,*76
1354234562244553282;compass/AK8973 Magnetic Field;22.75 -9.5 35.3125 3
1354234562244522282;accel/kr3dh;-0.095342435 -0.05448139 9.779409 3
1354234562244522282;linaccel/Linear Acceleration Sensor;-0.1282292 -0.07522897 -0.014369965 3
1354234562244492282;orientation/AK8973 Compass;247.09375 0.3125 -0.5625 1
1354234562241000000;rawNmea;$GPGSV,4,4,13,32,09,267,*40
1354234562255000000;rawNmea;$GPGGA,001601.0,3752.504306,N,12215.508745,W,1,05,5.0,126.7,M,-26.0,M,,*6A
1354234562259000000;rawNmea;$GPVTG,307.6,T,307.6,M,0.0,N,0.0,K,A*23
1354234562262000000;rawNmea;$GPRMC,001601.0,A,3752.504306,N,12215.508745,W,0.0,307.6,301112,,,A*71
1354234562264000000;rawNmea;$GPGSA,A,3,03,06,18,19,21,,,,,,,,18.6,5.0,17.9*30
1354234561000000000;latLngE7Gps;378750717 -1222584790 46.0 -1.0 0.0
1354234562340195282;accel/kr3dh;-0.027240695 0.05448139 9.80665 3
1354234562340195282;compass/AK8973 Magnetic Field;22.75 -9.5 35.5625 3
1354234562340195282;linaccel/Linear Acceleration Sensor;-0.041331835 0.043498248 -0.010672569 3
1354234562340165282;orientation/AK8973 Compass;247.09375 -0.3125 -0.171875 1
1354234562438950282;compass/AK8973 Magnetic Field;23.5 -9.25 35.3125 3
1354234562438919282;accel/kr3dh;-0.027240695 -0.05448139 9.833891 3
1354234562438919282;linaccel/Linear Acceleration Sensor;-0.012143493 -0.053822625 0.002325058 3
1354234562438858282;orientation/AK8973 Compass;247.21875 0.3125 -0.171875 1
1354234562539475282;orientation/AK8973 Compass;247.3125 0.171875 0.25 1
1354234562539475282;accel/kr3dh;0.040861044 -0.027240695 9.820271 3
1354234562539475282;linaccel/Linear Acceleration Sensor;0.079419136 -0.018350732 -0.010583878 3
1354234562633957282;compass/AK8973 Magnetic Field;23.0 -9.25 35.0625 3
1354234562633927282;accel/kr3dh;-0.027240695 -0.0 9.929234 3
1354234562633927282;linaccel/Linear Acceleration Sensor;0.015141135 0.014112339 0.10292053 3
1354234562633896282;orientation/AK8973 Compass;247.375 0.0 -0.171875 1
1354234562730179282;compass/AK8973 Magnetic Field;22.75 -8.75 34.8125 3
1354234562730118282;accel/kr3dh;-0.013620348 -0.013620348 9.711308 3
1354234562730118282;linaccel/Linear Acceleration Sensor;0.015432323 0.004549346 -0.11646271 3
1354234562730057282;orientation/AK8973 Compass;247.48438 0.078125 -0.078125 1
1354234562825363282;compass/AK8973 Magnetic Field;22.25 -8.75 35.0625 3
1354234562825333282;orientation/AK8973 Compass;247.5625 0.0 -0.3125 1
1354234562825333282;accel/kr3dh;-0.05448139 -0.0 9.847511 3
1354234562825333282;linaccel/Linear Acceleration Sensor;-0.040709846 0.019153219 0.014852524 3
1354234562913712647;wifi;00:23:04:89:cd:b2,UNKNOWN,-77 00:22:90:39:07:12,UNKNOWN,-78 00:17:df:a7:33:12,UNKNOWN,-78 00:17:df:a8:60:62,UNKNOWN,-83 00:17:df:a7:4c:f2,UNKNOWN,-83 00:23:04:89:cd:b5,UNKNOWN,-73 00:22:90:39:07:15,UNKNOWN,-77 00:17:df:a7:4c:f5,UNKNOWN,-81 00:17:df:a7:33:15,UNKNOWN,-78 00:17:df:a8:60:65,UNKNOWN,-85 00:23:04:89:cd:b6,UNKNOWN,-73 00:23:04:89:cd:b0,UNKNOWN,-74 00:17:df:a7:33:10,UNKNOWN,-78 00:23:04:89:cd:b1,UNKNOWN,-78 00:17:df:a7:33:16,UNKNOWN,-79 00:17:df:a7:33:11,UNKNOWN,-79 00:22:90:39:07:10,UNKNOWN,-80 00:22:90:39:07:16,UNKNOWN,-80 00:17:df:a8:60:60,UNKNOWN,-81 00:17:df:a8:60:66,UNKNOWN,-83 00:17:df:a7:4c:f6,UNKNOWN,-83 00:17:df:a7:4c:f0,UNKNOWN,-84 00:17:df:a8:60:61,UNKNOWN,-86 00:17:df:a7:4c:f1,UNKNOWN,-86 
1354234562919144282;accel/kr3dh;-0.027240695 -0.0 9.847511 3
1354234562919144282;compass/AK8973 Magnetic Field;22.0 -8.5 34.8125 3
1354234562919144282;linaccel/Linear Acceleration Sensor;-0.01853874 0.016059445 0.015669823 3
1354234562919113282;orientation/AK8973 Compass;247.65625 0.0 -0.171875 1
1354234563011765282;accel/kr3dh;-0.05448139 -0.0 9.79303 3
1354234563011765282;compass/AK8973 Magnetic Field;22.0 -8.25 34.8125 3
1354234563011765282;linaccel/Linear Acceleration Sensor;-0.039426375 0.010578811 -0.032621384 3
1354234563011734282;orientation/AK8973 Compass;247.78125 0.0 -0.3125 1
1354234563105118282;compass/AK8973 Magnetic Field;22.0 -8.5 35.0625 3
1354234563105088282;accel/kr3dh;0.0 0.013620348 9.724928 3
1354234563105088282;linaccel/Linear Acceleration Sensor;0.026505427 0.01837042 -0.09423351 3
1354234563105027282;orientation/AK8973 Compass;247.84375 -0.078125 -0.0 1
1354234563199692282;orientation/AK8973 Compass;247.89063 -0.078125 -0.0 1
1354234563199784282;compass/AK8973 Magnetic Field;22.5 -8.75 35.3125 3
1354234563220000000;rawNmea;$GPGSV,4,1,13,03,32,240,22,06,32,219,24,14,78,153,13,18,33,067,24*70
1354234563224000000;rawNmea;$GPGSV,4,2,13,19,42,274,23,21,18,129,18,22,65,028,22,01,02,310,*72
1354234563226000000;rawNmea;$GPGSV,4,3,13,09,10,040,,11,17,310,,24,13,047,,31,01,171,*77
1354234563227000000;rawNmea;$GPGSV,4,4,13,32,09,267,*40
1354234563232000000;rawNmea;$GPGGA,001602.0,3752.504307,N,12215.508746,W,1,06,1.6,126.7,M,-26.0,M,,*6A
1354234563235000000;rawNmea;$GPVTG,307.6,T,307.6,M,0.0,N,0.0,K,A*23
1354234563240000000;rawNmea;$GPRMC,001602.0,A,3752.504307,N,12215.508746,W,0.0,307.6,301112,,,A*70
1354234563247000000;rawNmea;$GPGSA,A,3,03,06,14,18,19,21,,,,,,,2.9,1.6,2.4*3A
1354234562000000000;latLngE7Gps;378750717 -1222584790 43.0 -1.0 0.0
1354234563294815282;accel/kr3dh;0.013620348 0.013620348 9.779409 3
1354234563294815282;compass/AK8973 Magnetic Field;23.25 -8.75 35.0625 3
1354234563294815282;linaccel/Linear Acceleration Sensor;0.045207445 0.004216098 0.0013093948 3
1354234563294785282;orientation/AK8973 Compass;247.96875 -0.078125 0.078125 1
1354234563389542282;compass/AK8973 Magnetic Field;23.5 -8.75 35.0625 3
1354234563389511282;accel/kr3dh;0.027240695 0.013620348 9.833891 3
1354234563389511282;linaccel/Linear Acceleration Sensor;0.046923555 -0.0011948124 0.081178665 3
1354234563389450282;orientation/AK8973 Compass;248.0625 -0.078125 0.171875 1
1354234563486954282;compass/AK8973 Magnetic Field;23.5 -9.0 35.0625 3
1354234563486924282;accel/kr3dh;-0.027240695 -0.027240695 9.901993 3
1354234563486924282;linaccel/Linear Acceleration Sensor;-0.028564315 -0.04376893 0.1604166 3
1354234563486893282;orientation/AK8973 Compass;248.14063 0.171875 -0.171875 1
1354234563585465282;compass/AK8973 Magnetic Field;23.25 -8.75 34.8125 3
1354234563585434282;accel/kr3dh;0.040861044 0.013620348 9.765789 3
1354234563585434282;linaccel/Linear Acceleration Sensor;0.02529823 -1.06593594E-4 0.00564003 3
1354234563585404282;orientation/AK8973 Compass;248.20313 -0.078125 0.25 1
1354234563687607282;compass/AK8973 Magnetic Field;22.5 -9.0 35.0625 3
1354234563687577282;accel/kr3dh;0.0 0.040861044 9.765789 3
1354234563687577282;linaccel/Linear Acceleration Sensor;-0.018125337 0.033328168 -0.031829834 3
1354234563687546282;orientation/AK8973 Compass;248.1875 -0.25 -0.0 1
1354234563711991454;wifi;00:23:04:89:cd:b2,UNKNOWN,-71 00:22:90:39:07:12,UNKNOWN,-75 00:17:df:a7:4c:f2,UNKNOWN,-81 00:23:04:89:cd:b5,UNKNOWN,-66 00:22:90:39:07:15,UNKNOWN,-76 00:17:df:a7:33:15,UNKNOWN,-77 00:17:df:a7:4c:f5,UNKNOWN,-83 00:23:04:89:cd:b6,UNKNOWN,-67 00:23:04:89:cd:b1,UNKNOWN,-67 00:23:04:89:cd:b0,UNKNOWN,-68 00:22:90:39:07:11,UNKNOWN,-72 00:22:90:39:07:10,UNKNOWN,-74 00:22:90:39:07:16,UNKNOWN,-75 00:17:df:a7:33:16,UNKNOWN,-78 00:17:df:a7:33:11,UNKNOWN,-78 00:17:df:a7:33:10,UNKNOWN,-79 00:17:df:a7:4c:f6,UNKNOWN,-82 00:13:5f:55:d8:b0,UNKNOWN,-83 00:17:df:a7:4c:f0,UNKNOWN,-83 
1354234563805252282;accel/kr3dh;-0.05448139 -0.0 9.80665 3
1354234563805252282;compass/AK8973 Magnetic Field;22.5 -9.0 34.8125 3
1354234563805252282;linaccel/Linear Acceleration Sensor;-0.066489466 -0.005009532 -0.014835358 3
1354234563805222282;orientation/AK8973 Compass;248.20313 0.0 -0.3125 1
1354234563900894282;compass/AK8973 Magnetic Field;22.75 -8.5 34.8125 3
1354234563900864282;accel/kr3dh;0.013620348 0.013620348 9.738548 3
1354234563900864282;linaccel/Linear Acceleration Sensor;0.009471166 0.0047103204 -0.077625275 3
1354234563900803282;orientation/AK8973 Compass;248.28125 -0.078125 0.078125 1
1354234564004807282;compass/AK8973 Magnetic Field;22.75 -9.0 34.8125 3
1354234564004776282;accel/kr3dh;0.0 0.040861044 9.80665 3
1354234564004776282;linaccel/Linear Acceleration Sensor;0.005927448 0.0252552 0.013260841 3
1354234564004746282;orientation/AK8973 Compass;248.26563 -0.25 -0.0 1
1354234564099137282;orientation/AK8973 Compass;248.35938 -0.25 -0.0 1
1354234564099137282;compass/AK8973 Magnetic Field;22.75 -8.25 34.8125 3
1354234564192307282;compass/AK8973 Magnetic Field;22.5 -8.5 35.0625 3
1354234564192246282;accel/kr3dh;-0.040861044 -0.0 9.80665 3
1354234564192246282;linaccel/Linear Acceleration Sensor;-0.025408115 -0.024226291 0.039494514 3
1354234564192215282;orientation/AK8973 Compass;248.42188 0.0 -0.25 1
1354234564222000000;rawNmea;$GPGSV,4,1,13,03,32,240,20,06,32,219,26,14,78,153,13,18,33,067,20*74
1354234564228000000;rawNmea;$GPGSV,4,2,13,19,42,274,23,21,18,129,18,22,65,028,22,24,13,047,17*72
1354234564235000000;rawNmea;$GPGSV,4,3,13,01,02,310,,09,10,040,,11,17,310,,31,01,171,*71
1354234564241000000;rawNmea;$GPGSV,4,4,13,32,09,267,*40
1354234564256000000;rawNmea;$GPGGA,001603.0,3752.504231,N,12215.508745,W,1,07,1.2,126.9,M,-26.0,M,,*67
1354234564263000000;rawNmea;$GPVTG,307.6,T,307.6,M,0.0,N,0.0,K,A*23
1354234564269000000;rawNmea;$GPRMC,001603.0,A,3752.504231,N,12215.508745,W,0.0,307.6,301112,,,A*76
1354234564276000000;rawNmea;$GPGSA,A,3,03,06,14,18,19,21,24,,,,,,2.2,1.2,1.9*3D
1354234564296677282;orientation/AK8973 Compass;248.35938 -0.25 -0.0 1
1354234564296677282;accel/kr3dh;0.0 0.040861044 9.670447 3
1354234564296677282;compass/AK8973 Magnetic Field;22.5 -9.25 35.0625 3
1354234564296677282;linaccel/Linear Acceleration Sensor;0.013762645 0.014708776 -0.101857185 3
1354234563000000000;latLngE7Gps;378750705 -1222584790 36.0 -1.0 0.0
1354234564390091282;accel/kr3dh;-0.027240695 0.05448139 9.833891 3
1354234564390091282;compass/AK8973 Magnetic Field;23.0 -9.25 35.0625 3
1354234564390091282;linaccel/Linear Acceleration Sensor;-0.015656898 0.027921177 0.053530693 3
1354234564390061282;orientation/AK8973 Compass;248.32813 -0.3125 -0.171875 1
1354234564523545410;wifi;00:23:04:89:cd:b2,UNKNOWN,-70 00:22:90:39:07:12,UNKNOWN,-77 00:17:df:a8:60:62,UNKNOWN,-79 00:17:df:a7:33:12,UNKNOWN,-77 b8:c7:5d:08:bd:fd,UNKNOWN,-82 00:23:04:89:cd:b5,UNKNOWN,-73 00:22:90:39:07:15,UNKNOWN,-76 00:17:df:a7:33:15,UNKNOWN,-81 00:17:df:a8:60:65,UNKNOWN,-83 00:22:90:39:65:b5,UNKNOWN,-91 00:23:04:89:cd:b1,UNKNOWN,-71 00:23:04:89:cd:b0,UNKNOWN,-73 00:22:90:39:07:10,UNKNOWN,-74 00:23:04:89:cd:b6,UNKNOWN,-74 00:22:90:39:07:11,UNKNOWN,-75 00:22:90:39:07:16,UNKNOWN,-75 00:17:df:a8:60:60,UNKNOWN,-80 00:17:df:a8:60:61,UNKNOWN,-81 00:17:df:a8:60:66,UNKNOWN,-83 
1354234564508438282;compass/AK8973 Magnetic Field;23.5 -9.75 35.3125 3
1354234564508408282;accel/kr3dh;0.0 -0.013620348 9.697687 3
1354234564508408282;linaccel/Linear Acceleration Sensor;0.012957441 -0.041770797 -0.077604294 3
1354234564508347282;orientation/AK8973 Compass;248.28125 0.078125 -0.0 1
1354234564604081282;orientation/AK8973 Compass;248.32813 0.0 -0.3125 1
1354234564604081282;accel/kr3dh;-0.05448139 -0.0 9.820271 3
1354234564604081282;compass/AK8973 Magnetic Field;24.0 -9.25 35.3125 3
1354234564604081282;linaccel/Linear Acceleration Sensor;-0.03963221 -0.029122762 0.054340363 3
1354234564704972282;compass/AK8973 Magnetic Field;24.0 -8.75 35.3125 3
1354234564704941282;accel/kr3dh;-0.027240695 -0.0 9.711308 3
1354234564704941282;linaccel/Linear Acceleration Sensor;-0.009413462 -0.024777656 -0.04740143 3
1354234564704911282;orientation/AK8973 Compass;248.4375 0.0 -0.171875 1
1354234564799942282;orientation/AK8973 Compass;248.45313 -0.390625 0.25 1
1354234564799942282;accel/kr3dh;0.040861044 0.06810174 9.80665 3
1354234564799942282;compass/AK8973 Magnetic Field;23.25 -8.75 35.0625 3
1354234564799942282;linaccel/Linear Acceleration Sensor;0.06262854 0.05192524 0.049773216 3
1354234564892899282;compass/AK8973 Magnetic Field;23.25 -8.75 34.8125 3
1354234564892868282;accel/kr3dh;-0.05448139 -0.027240695 9.820271 3
1354234564892868282;linaccel/Linear Acceleration Sensor;-0.03125895 -0.037271395 0.060510635 3
1354234564892807282;orientation/AK8973 Compass;248.53125 0.171875 -0.3125 1
1354234564987778282;compass/AK8973 Magnetic Field;23.0 -9.0 34.3125 3
1354234564987748282;orientation/AK8973 Compass;248.54688 0.078125 -0.171875 1
1354234564987748282;accel/kr3dh;-0.027240695 -0.013620348 9.80665 3
1354234564987748282;linaccel/Linear Acceleration Sensor;-0.006991582 -0.02307104 0.037989616 3
1354234565079697282;orientation/AK8973 Compass;248.59375 0.171875 -0.3125 1
1354234565079697282;accel/kr3dh;-0.05448139 -0.027240695 9.80665 3
1354234565079697282;compass/AK8973 Magnetic Field;23.25 -9.0 34.5625 3
1354234565079697282;linaccel/Linear Acceleration Sensor;-0.036520977 -0.036114745 0.023687363 3
1354234565171738282;accel/kr3dh;0.040861044 -0.0 9.79303 3
1354234565171738282;compass/AK8973 Magnetic Field;23.5 -9.0 35.0625 3
1354234565171738282;linaccel/Linear Acceleration Sensor;0.061157204 -0.0031173876 -0.004995346 3
1354234565171707282;orientation/AK8973 Compass;248.60938 0.0 0.25 1
1354234565222000000;rawNmea;$GPGSV,4,1,13,03,32,240,20,06,32,219,28,14,78,153,13,18,33,067,20*7A
1354234565229000000;rawNmea;$GPGSV,4,2,13,19,42,274,23,21,18,129,18,22,65,028,22,24,13,047,17*72
1354234565237000000;rawNmea;$GPGSV,4,3,13,01,02,310,,09,10,040,,11,17,310,,31,01,171,*71
1354234565243000000;rawNmea;$GPGSV,4,4,13,32,09,267,*40
1354234565269181282;compass/AK8973 Magnetic Field;23.5 -9.25 35.3125 3
1354234565269150282;accel/kr3dh;-0.013620348 -0.013620348 9.80665 3
1354234565269150282;linaccel/Linear Acceleration Sensor;0.009630359 -0.0071952445 -0.0011024475 3
1354234565269089282;orientation/AK8973 Compass;248.60938 0.078125 -0.078125 1
1354234565261000000;rawNmea;$GPGGA,001604.0,3752.504234,N,12215.508745,W,1,06,1.9,126.9,M,-26.0,M,,*6F
1354234565299546386;wifi;00:23:04:89:cd:b2,UNKNOWN,-72 00:22:90:39:07:12,UNKNOWN,-76 00:17:df:a7:33:12,UNKNOWN,-77 00:17:df:a8:60:62,UNKNOWN,-80 00:17:df:a7:4c:f2,UNKNOWN,-81 28:cf:da:b8:1e:d5,UNKNOWN,-95 00:22:90:39:07:15,UNKNOWN,-78 00:17:df:a7:4c:f5,UNKNOWN,-81 00:17:df:a7:33:15,UNKNOWN,-81 00:23:04:89:cd:b1,UNKNOWN,-71 00:22:90:39:07:10,UNKNOWN,-77 00:17:df:a7:33:11,UNKNOWN,-78 00:22:90:39:07:11,UNKNOWN,-78 00:22:90:39:07:16,UNKNOWN,-79 00:17:df:a7:33:10,UNKNOWN,-80 00:17:df:a7:33:16,UNKNOWN,-80 00:17:df:a8:60:60,UNKNOWN,-81 00:23:04:89:cd:b6,UNKNOWN,-81 00:13:5f:55:d8:b0,UNKNOWN,-81 00:17:df:a8:60:66,UNKNOWN,-81 00:17:df:a7:4c:f1,UNKNOWN,-81 00:23:04:89:cd:b0,UNKNOWN,-82 00:17:df:a8:60:61,UNKNOWN,-83 00:17:df:a7:4c:f6,UNKNOWN,-83 00:22:90:39:65:b0,UNKNOWN,-88 00:22:90:39:65:b6,UNKNOWN,-93 08:ed:b9:5d:b2:0c,UNKNOWN,-95 
1354234565301000000;rawNmea;$GPVTG,307.6,T,307.6,M,0.0,N,0.0,K,A*23
1354234565304000000;rawNmea;$GPRMC,001604.0,A,3752.504234,N,12215.508745,W,0.0,307.6,301112,,,A*74
1354234565306000000;rawNmea;$GPGSA,A,3,03,06,14,18,19,24,,,,,,,2.8,1.9,2.1*34
1354234564000000000;latLngE7Gps;378750705 -1222584790 36.0 -1.0 0.0
1354234565366776282;compass/AK8973 Magnetic Field;23.5 -9.75 36.0625 3
1354234565366745282;orientation/AK8973 Compass;248.5625 0.0 -0.5625 1
1354234565366745282;accel/kr3dh;-0.095342435 -0.0 9.833891 3
1354234565366745282;linaccel/Linear Acceleration Sensor;-0.07428397 0.013126031 0.023832321 3
1354234565462937282;compass/AK8973 Magnetic Field;23.5 -10.0 35.8125 3
1354234565462906282;accel/kr3dh;-0.013620348 -0.013620348 9.833891 3
1354234565462906282;linaccel/Linear Acceleration Sensor;0.0052617146 6.202804E-4 0.023827553 3
1354234565462876282;orientation/AK8973 Compass;248.46875 0.078125 -0.078125 1
1354234565561386282;compass/AK8973 Magnetic Field;23.25 -9.75 35.8125 3
1354234565561356282;accel/kr3dh;0.013620348 0.027240695 9.874752 3
1354234565561356282;linaccel/Linear Acceleration Sensor;0.036834043 0.038330313 0.06041336 3
1354234565561295282;orientation/AK8973 Compass;248.375 -0.171875 0.078125 1
1354234565656021282;compass/AK8973 Magnetic Field;23.0 -9.5 35.5625 3
1354234565655991282;orientation/AK8973 Compass;248.29688 -0.3125 -0.0 1
1354234565655991282;accel/kr3dh;0.0 0.05448139 9.847511 3
1354234565655991282;linaccel/Linear Acceleration Sensor;0.027965605 0.05960434 0.02270031 3
1354234565751725282;compass/AK8973 Magnetic Field;23.25 -9.0 35.5625 3
1354234565751694282;accel/kr3dh;0.027240695 0.040861044 9.765789 3
1354234565751694282;linaccel/Linear Acceleration Sensor;0.05145164 0.035489067 -0.071985245 3
1354234565751633282;orientation/AK8973 Compass;248.3125 -0.25 0.171875 1
1354234565848435282;compass/AK8973 Magnetic Field;22.75 -8.75 35.5625 3
1354234565848374282;accel/kr3dh;-0.027240695 0.027240695 9.79303 3
1354234565848374282;linaccel/Linear Acceleration Sensor;-0.015339269 0.0071178116 -0.049907684 3
1354234565848343282;orientation/AK8973 Compass;248.34375 -0.171875 -0.171875 1
1354234565944657282;compass/AK8973 Magnetic Field;22.75 -9.25 35.3125 3
1354234565944626282;accel/kr3dh;-0.013620348 0.040861044 9.847511 3
1354234565944626282;linaccel/Linear Acceleration Sensor;-0.013748964 0.0071992837 0.013540268 3
1354234565944565282;orientation/AK8973 Compass;248.29688 -0.21875 -0.078125 1
1354234566039444282;accel/kr3dh;-0.095342435 0.013620348 9.80665 3
1354234566039444282;compass/AK8973 Magnetic Field;22.75 -9.5 35.8125 3
1354234566039444282;linaccel/Linear Acceleration Sensor;-0.09817675 -0.026953507 -0.011991501 3
1354234566039414282;orientation/AK8973 Compass;248.25 -0.078125 -0.5625 1
1354234566121842527;wifi;00:22:90:39:07:12,UNKNOWN,-76 00:17:df:a7:33:12,UNKNOWN,-76 00:23:04:89:cd:b2,UNKNOWN,-78 00:17:df:a8:60:62,UNKNOWN,-82 00:17:df:a7:4c:f2,UNKNOWN,-83 28:cf:da:b8:1e:d5,UNKNOWN,-89 00:22:90:39:65:b2,UNKNOWN,-96 00:23:04:89:cd:b5,UNKNOWN,-71 00:17:df:a7:33:15,UNKNOWN,-76 00:17:df:a7:4c:f5,UNKNOWN,-82 00:23:04:89:bb:f5,UNKNOWN,-97 00:23:04:89:cd:b6,UNKNOWN,-72 00:23:04:89:cd:b0,UNKNOWN,-73 00:17:df:a7:33:16,UNKNOWN,-76 00:17:df:a7:33:10,UNKNOWN,-77 00:17:df:a7:33:11,UNKNOWN,-77 00:23:04:89:cd:b1,UNKNOWN,-78 00:22:90:39:07:11,UNKNOWN,-78 00:22:90:39:07:10,UNKNOWN,-80 00:22:90:39:07:16,UNKNOWN,-80 00:17:df:a7:4c:f0,UNKNOWN,-80 00:17:df:a7:4c:f6,UNKNOWN,-81 00:17:df:a8:60:66,UNKNOWN,-82 00:17:df:a7:4c:f1,UNKNOWN,-82 00:23:04:89:c3:d1,UNKNOWN,-97 
1354234566133225282;accel/kr3dh;-0.05448139 -0.0 9.697687 3
1354234566133225282;compass/AK8973 Magnetic Field;22.5 -9.25 35.8125 3
1354234566133225282;linaccel/Linear Acceleration Sensor;-0.04693699 -0.039697498 -0.10964298 3
1354234566133194282;orientation/AK8973 Compass;248.21875 0.0 -0.34375 1
1354234566226029282;compass/AK8973 Magnetic Field;22.5 -9.75 35.5625 3
1354234566225998282;accel/kr3dh;0.0 -0.027240695 9.779409 3
1354234566225998282;linaccel/Linear Acceleration Sensor;0.026859807 -0.059302278 -0.018980026 3
1354234566225968282;orientation/AK8973 Compass;248.125 0.171875 -0.0 1
1354234566221000000;rawNmea;$GPGSV,4,1,13,03,32,240,20,06,32,219,28,14,78,153,13,18,33,067,24*7E
1354234566222000000;rawNmea;$GPGSV,4,2,13,19,42,274,24,21,18,129,19,22,65,028,22,24,13,047,17*74
1354234566228000000;rawNmea;$GPGSV,4,3,13,01,02,310,,09,10,040,,11,17,310,,31,01,171,*71
1354234566231000000;rawNmea;$GPGSV,4,4,13,32,09,267,*40
1354234566236000000;rawNmea;$GPGGA,001605.0,3752.504224,N,12215.508750,W,1,07,1.2,126.9,M,-26.0,M,,*61
1354234566240000000;rawNmea;$GPVTG,307.6,T,307.6,M,0.0,N,0.0,K,A*23
1354234566242000000;rawNmea;$GPRMC,001605.0,A,3752.504224,N,12215.508750,W,0.0,307.6,301112,,,A*70
1354234566244000000;rawNmea;$GPGSA,A,3,03,06,14,18,19,21,24,,,,,,2.2,1.2,1.9*3D
1354234565000000000;latLngE7Gps;378750704 -1222584791 31.0 -1.0 0.0
1354234566319229282;orientation/AK8973 Compass;248.125 -0.21875 -0.171875 1
1354234566319229282;accel/kr3dh;-0.027240695 0.040861044 9.929234 3
1354234566319229282;compass/AK8973 Magnetic Field;22.75 -9.0 35.5625 3
1354234566319229282;linaccel/Linear Acceleration Sensor;0.016611462 0.021221358 0.14185333 3
1354234566414078282;compass/AK8973 Magnetic Field;22.5 -9.0 35.0625 3
1354234566414048282;accel/kr3dh;0.0 0.027240695 9.820271 3
1354234566414048282;linaccel/Linear Acceleration Sensor;0.047823355 0.019286938 0.036769867 3
1354234566413987282;orientation/AK8973 Compass;248.10938 -0.171875 -0.0 1
1354234566511246282;compass/AK8973 Magnetic Field;22.75 -9.75 34.8125 3
1354234566511185282;accel/kr3dh;0.040861044 0.013620348 9.779409 3
1354234566511185282;linaccel/Linear Acceleration Sensor;0.07810445 0.0093412865 -0.018147469 3
1354234566511154282;orientation/AK8973 Compass;248.01563 -0.078125 0.25 1
1354234566607407282;compass/AK8973 Magnetic Field;23.25 -9.75 34.8125 3
1354234566607376282;accel/kr3dh;0.0 -0.040861044 9.765789 3
1354234566607376282;linaccel/Linear Acceleration Sensor;0.018711606 -0.04914365 -0.051805496 3
1354234566607346282;orientation/AK8973 Compass;247.98438 0.25 -0.0 1
1354234566702378282;compass/AK8973 Magnetic Field;23.25 -10.25 35.0625 3
1354234566702347282;orientation/AK8973 Compass;247.875 0.0 -0.0 1
1354234566702347282;accel/kr3dh;0.0 -0.0 9.779409 3
1354234566702347282;linaccel/Linear Acceleration Sensor;-1.1007581E-4 -0.011073318 -0.04409218 3
1354234566798935282;orientation/AK8973 Compass;247.79688 -0.5625 -0.0 1
1354234566798935282;accel/kr3dh;0.0 0.095342435 9.79303 3
1354234566798935282;compass/AK8973 Magnetic Field;24.0 -10.0 34.8125 3
1354234566798935282;linaccel/Linear Acceleration Sensor;-0.012324256 0.08739549 -0.017892838 3
1354234566934281494;wifi;00:23:04:89:cd:b2,UNKNOWN,-71 00:17:df:a7:33:12,UNKNOWN,-77 00:17:df:a8:60:62,UNKNOWN,-81 00:17:df:a7:4c:f2,UNKNOWN,-85 00:22:90:39:65:b2,UNKNOWN,-87 28:cf:da:b8:1e:d5,UNKNOWN,-89 00:22:90:39:07:15,UNKNOWN,-74 00:17:df:a8:60:65,UNKNOWN,-81 00:17:df:a7:33:15,UNKNOWN,-77 00:17:df:a7:4c:f5,UNKNOWN,-87 00:23:04:89:cd:b1,UNKNOWN,-69 00:22:90:39:07:16,UNKNOWN,-75 00:22:90:39:07:10,UNKNOWN,-75 00:22:90:39:07:11,UNKNOWN,-76 00:17:df:a7:33:16,UNKNOWN,-77 00:17:df:a7:33:10,UNKNOWN,-77 00:17:df:a7:33:11,UNKNOWN,-78 00:23:04:89:cd:b6,UNKNOWN,-80 00:17:df:a8:60:60,UNKNOWN,-81 00:23:04:89:cd:b0,UNKNOWN,-81 00:17:df:a8:60:66,UNKNOWN,-82 00:17:df:a8:60:61,UNKNOWN,-83 00:17:df:a7:4c:f0,UNKNOWN,-84 00:17:df:a7:4c:f1,UNKNOWN,-86 00:22:90:39:65:b1,UNKNOWN,-88 00:22:90:39:65:b6,UNKNOWN,-93 
1354234566910599282;compass/AK8973 Magnetic Field;23.75 -9.75 34.8125 3
1354234566910569282;accel/kr3dh;-0.05448139 0.013620348 9.738548 3
1354234566910569282;linaccel/Linear Acceleration Sensor;-0.066616215 0.0060951402 -0.04978943 3
1354234566910538282;orientation/AK8973 Compass;247.79688 -0.078125 -0.3125 1
1354234567005692282;accel/kr3dh;-0.027240695 -0.05448139 9.697687 3
1354234567005692282;compass/AK8973 Magnetic Field;23.25 -9.25 35.3125 3
1354234567005692282;linaccel/Linear Acceleration Sensor;-0.030034533 -0.070569366 -0.07528019 3
1354234567005661282;orientation/AK8973 Compass;247.85938 0.34375 -0.171875 1
1354234567099625282;compass/AK8973 Magnetic Field;23.25 -9.25 34.5625 3
1354234567099594282;orientation/AK8973 Compass;247.89063 0.171875 0.25 1
1354234567099594282;accel/kr3dh;0.040861044 -0.027240695 9.779409 3
1354234567099594282;linaccel/Linear Acceleration Sensor;0.05184578 -0.050778955 0.018817902 3
1354234567201248282;compass/AK8973 Magnetic Field;23.0 -9.5 34.5625 3
1354234567201218282;accel/kr3dh;-0.027240695 0.06810174 9.765789 3
1354234567201218282;linaccel/Linear Acceleration Sensor;-0.0069180895 0.05110053 0.017311096 3
1354234567201187282;orientation/AK8973 Compass;247.84375 -0.390625 -0.171875 1
1354234567223000000;rawNmea;$GPGSV,4,1,13,03,32,240,20,06,32,220,28,14,78,157,13,18,33,067,24*70
1354234567228000000;rawNmea;$GPGSV,4,2,13,19,42,275,26,21,19,129,24,22,66,025,22,24,14,049,17*7F
1354234567229000000;rawNmea;$GPGSV,4,3,13,01,01,310,,09,10,040,,11,16,310,,31,01,171,*73
1354234567231000000;rawNmea;$GPGSV,4,4,13,32,09,267,*40
1354234567253000000;rawNmea;$GPGGA,001606.0,3752.504230,N,12215.508755,W,1,07,1.2,126.9,M,-26.0,M,,*62
1354234567256000000;rawNmea;$GPVTG,307.6,T,307.6,M,0.0,N,0.0,K,A*23
1354234567263000000;rawNmea;$GPRMC,001606.0,A,3752.504230,N,12215.508755,W,0.0,307.6,301112,,,A*73
1354234567264000000;rawNmea;$GPGSA,A,3,03,06,14,18,19,21,24,,,,,,2.2,1.2,1.9*3D
1354234566000000000;latLngE7Gps;378750705 -1222584792 29.0 -1.0 0.0
1354234567304703282;accel/kr3dh;0.0 -0.027240695 9.833891 3
1354234567304703282;compass/AK8973 Magnetic Field;23.25 -9.0 34.5625 3
1354234567304703282;linaccel/Linear Acceleration Sensor;0.017793383 -0.030678999 0.08880806 3
1354234567304673282;orientation/AK8973 Compass;247.92188 0.171875 -0.0 1
1354234567399033282;orientation/AK8973 Compass;248.0 0.21875 -0.0 1
1354234567399033282;accel/kr3dh;0.0 -0.040861044 9.861132 3
1354234567399033282;linaccel/Linear Acceleration Sensor;0.01014744 -0.037973594 0.10505295 3
1354234567494919282;compass/AK8973 Magnetic Field;23.5 -9.25 35.0625 3
1354234567494889282;accel/kr3dh;-0.05448139 -0.013620348 9.820271 3
1354234567494889282;linaccel/Linear Acceleration Sensor;-0.04996378 -0.009267859 0.039030075 3
1354234567494828282;orientation/AK8973 Compass;248.04688 0.078125 -0.3125 1
1354234567591660282;accel/kr3dh;0.0 0.08172209 9.765789 3
1354234567591660282;compass/AK8973 Magnetic Field;23.75 -8.5 35.5625 3
1354234567591660282;linaccel/Linear Acceleration Sensor;0.00517843 0.088868245 -0.04429245 3
1354234567591629282;orientation/AK8973 Compass;248.15625 -0.484375 -0.0 1
1354234567688523282;orientation/AK8973 Compass;248.17188 -0.078125 -0.484375 1
1354234567688523282;accel/kr3dh;-0.08172209 0.013620348 9.79303 3
1354234567688523282;compass/AK8973 Magnetic Field;23.25 -9.25 35.5625 3
1354234567688523282;linaccel/Linear Acceleration Sensor;-0.06951616 0.020170411 -0.0337162 3
1354234567756302977;wifi;00:23:04:89:cd:b2,UNKNOWN,-68 00:17:df:a7:33:12,UNKNOWN,-78 00:22:90:39:07:12,UNKNOWN,-79 00:17:df:a8:60:62,UNKNOWN,-83 00:17:df:a7:4c:f2,UNKNOWN,-85 00:22:90:39:65:b2,UNKNOWN,-87 28:cf:da:b8:1e:d5,UNKNOWN,-89 00:22:90:39:07:15,UNKNOWN,-77 00:17:df:a7:4c:f5,UNKNOWN,-83 00:17:df:a7:33:15,UNKNOWN,-79 00:23:04:89:cd:b0,UNKNOWN,-68 00:23:04:89:cd:b1,UNKNOWN,-69 00:23:04:89:cd:b6,UNKNOWN,-69 00:17:df:a7:33:11,UNKNOWN,-77 00:22:90:39:07:10,UNKNOWN,-77 00:22:90:39:07:16,UNKNOWN,-78 00:17:df:a7:33:10,UNKNOWN,-78 00:22:90:39:07:11,UNKNOWN,-79 00:17:df:a7:33:16,UNKNOWN,-79 00:13:5f:55:d8:b0,UNKNOWN,-81 00:17:df:a8:60:66,UNKNOWN,-83 00:17:df:a8:60:60,UNKNOWN,-83 00:17:df:a8:60:61,UNKNOWN,-83 00:17:df:a7:4c:f1,UNKNOWN,-85 00:17:df:a7:4c:f6,UNKNOWN,-86 00:22:90:39:65:b0,UNKNOWN,-93 
1354234567808457282;accel/kr3dh;-0.06810174 -0.027240695 9.861132 3
1354234567808457282;compass/AK8973 Magnetic Field;23.5 -9.5 35.3125 3
1354234567808457282;linaccel/Linear Acceleration Sensor;-0.04007715 -0.03385817 0.040079117 3
1354234567808426282;orientation/AK8973 Compass;248.1875 0.171875 -0.390625 1
1354234567902695282;compass/AK8973 Magnetic Field;23.0 -9.25 35.3125 3
1354234567902665282;accel/kr3dh;0.0 0.040861044 9.80665 3
1354234567902665282;linaccel/Linear Acceleration Sensor;0.042255647 0.023741579 -0.005355835 3
1354234567902634282;orientation/AK8973 Compass;248.15625 -0.25 -0.0 1
1354234568005051282;compass/AK8973 Magnetic Field;22.5 -9.75 34.8125 3
1354234568005020282;accel/kr3dh;-0.040861044 -0.027240695 9.752169 3
1354234568005020282;linaccel/Linear Acceleration Sensor;0.01138784 -0.04662342 -0.05577278 3
1354234568004959282;orientation/AK8973 Compass;248.07813 0.171875 -0.25 1
1354234568101792282;compass/AK8973 Magnetic Field;22.5 -9.25 34.5625 3
1354234568101761282;orientation/AK8973 Compass;248.03125 -0.25 -0.171875 1
1354234568101761282;accel/kr3dh;-0.027240695 0.040861044 9.724928 3
1354234568101761282;linaccel/Linear Acceleration Sensor;0.024070451 0.02578285 -0.08059788 3
1354234568200058282;compass/AK8973 Magnetic Field;22.0 -9.5 34.5625 3
1354234568200028282;accel/kr3dh;-0.040861044 -0.0 9.779409 3
1354234568200028282;linaccel/Linear Acceleration Sensor;0.0013193972 -0.009785479 -0.01515007 3
1354234568199997282;orientation/AK8973 Compass;247.95313 0.0 -0.25 1
1354234568220000000;rawNmea;$GPGSV,4,1,13,03,32,240,20,06,32,220,28,14,78,157,13,18,33,067,23*77
1354234568221000000;rawNmea;$GPGSV,4,2,13,19,42,275,24,21,19,129,24,22,66,025,22,24,14,049,17*7D
1354234568226000000;rawNmea;$GPGSV,4,3,13,01,01,310,,09,10,040,,11,16,310,,31,01,171,*73
1354234568228000000;rawNmea;$GPGSV,4,4,13,32,09,267,*40
1354234568232000000;rawNmea;$GPGGA,001607.0,3752.504223,N,12215.508758,W,1,07,1.2,126.9,M,-26.0,M,,*6C
1354234568235000000;rawNmea;$GPVTG,307.6,T,307.6,M,0.0,N,0.0,K,A*23
1354234568238000000;rawNmea;$GPRMC,001607.0,A,3752.504223,N,12215.508758,W,0.0,307.6,301112,,,A*7D
1354234568240000000;rawNmea;$GPGSA,A,3,03,06,14,18,19,21,24,,,,,,2.2,1.2,1.9*3D
1354234567000000000;latLngE7Gps;378750703 -1222584792 26.0 -1.0 0.0
1354234568296341282;accel/kr3dh;-0.06810174 0.040861044 9.697687 3
1354234568296341282;compass/AK8973 Magnetic Field;22.25 -9.5 34.5625 3
1354234568296341282;linaccel/Linear Acceleration Sensor;-0.033841 0.032629207 -0.07732582 3
1354234568296311282;orientation/AK8973 Compass;247.875 -0.25 -0.390625 1
1354234568390213282;orientation/AK8973 Compass;247.82813 0.0 -0.3125 1
1354234568390213282;accel/kr3dh;-0.05448139 -0.0 9.779409 3
1354234568390213282;compass/AK8973 Magnetic Field;22.25 -9.5 34.8125 3
1354234568390213282;linaccel/Linear Acceleration Sensor;-0.0210548 -0.010949984 0.024044037 3
1354234568485733282;compass/AK8973 Magnetic Field;22.25 -9.75 34.3125 3
1354234568485672282;accel/kr3dh;-0.027240695 -0.0 9.779409 3
1354234568485672282;linaccel/Linear Acceleration Sensor;0.012314195 -0.015100826 0.036685944 3
1354234568485642282;orientation/AK8973 Compass;247.73438 0.0 -0.171875 1
1354234568590104247;wifi;00:23:04:89:cd:b2,UNKNOWN,-65 00:22:90:39:07:12,UNKNOWN,-75 00:17:df:a7:33:12,UNKNOWN,-78 00:17:df:a7:4c:f2,UNKNOWN,-85 00:23:04:89:cd:b5,UNKNOWN,-69 00:22:90:39:07:15,UNKNOWN,-77 00:17:df:a7:33:15,UNKNOWN,-77 00:17:df:a7:4c:f5,UNKNOWN,-85 00:23:04:89:cd:b6,UNKNOWN,-68 00:23:04:89:cd:b0,UNKNOWN,-68 00:23:04:89:cd:b1,UNKNOWN,-68 00:22:90:39:07:10,UNKNOWN,-74 00:22:90:39:07:11,UNKNOWN,-75 00:22:90:39:07:16,UNKNOWN,-75 00:17:df:a7:33:16,UNKNOWN,-77 00:17:df:a7:33:11,UNKNOWN,-78 00:17:df:a8:60:60,UNKNOWN,-82 00:17:df:a7:4c:f0,UNKNOWN,-84 00:17:df:a7:4c:f1,UNKNOWN,-85 00:17:df:a7:4c:f6,UNKNOWN,-86 
1354234568582718282;compass/AK8973 Magnetic Field;22.75 -9.5 34.3125 3
1354234568582688282;accel/kr3dh;-0.027240695 -0.013620348 9.820271 3
1354234568582688282;linaccel/Linear Acceleration Sensor;0.019248938 -0.029597305 0.07758331 3
1354234568582657282;orientation/AK8973 Compass;247.71875 0.078125 -0.171875 1
1354234568677109282;orientation/AK8973 Compass;247.71875 0.390625 -0.0 1
1354234568677109282;accel/kr3dh;0.0 -0.06810174 9.779409 3
1354234568677109282;compass/AK8973 Magnetic Field;22.5 -9.5 34.3125 3
1354234568677109282;linaccel/Linear Acceleration Sensor;0.04709801 -0.07857281 0.023941994 3
1354234568769089282;accel/kr3dh;-0.027240695 -0.08172209 9.765789 3
1354234568769089282;compass/AK8973 Magnetic Field;22.25 -9.75 34.3125 3
1354234568769089282;linaccel/Linear Acceleration Sensor;0.012831276 -0.079343274 -0.008020401 3
1354234568769059282;orientation/AK8973 Compass;247.67188 0.484375 -0.171875 1
1354234568861069282;orientation/AK8973 Compass;247.60938 -0.171875 -0.078125 1
1354234568861069282;accel/kr3dh;-0.013620348 0.027240695 9.779409 3
1354234568861069282;compass/AK8973 Magnetic Field;22.75 -9.75 35.5625 3
1354234568861069282;linaccel/Linear Acceleration Sensor;0.015446362 0.04837612 -0.008281708 3
1354234568954453282;compass/AK8973 Magnetic Field;22.5 -9.5 35.5625 3
1354234568954422282;accel/kr3dh;-0.013620348 0.05448139 9.765789 3
1354234568954422282;linaccel/Linear Acceleration Sensor;0.005789495 0.09119752 -0.025284767 3
1354234568954392282;orientation/AK8973 Compass;247.54688 -0.3125 -0.078125 1
1354234569050278282;accel/kr3dh;-0.05448139 -0.0 9.820271 3
1354234569050278282;compass/AK8973 Magnetic Field;23.0 -9.25 35.3125 3
1354234569050278282;linaccel/Linear Acceleration Sensor;-0.03976901 0.035405867 0.03395939 3
1354234569050248282;orientation/AK8973 Compass;247.59375 0.0 -0.3125 1
1354234569144944282;compass/AK8973 Magnetic Field;23.25 -9.0 35.3125 3
1354234569144883282;accel/kr3dh;-0.013620348 0.013620348 9.820271 3
1354234569144883282;linaccel/Linear Acceleration Sensor;0.0022356035 0.030098006 0.038004875 3
1354234569144852282;orientation/AK8973 Compass;247.67188 -0.078125 -0.078125 1
1354234569223000000;rawNmea;$GPGSV,4,1,13,03,32,240,20,06,32,220,28,14,78,157,19,18,33,067,24*7A
1354234569228000000;rawNmea;$GPGSV,4,2,13,19,42,275,25,21,19,129,24,22,66,025,22,24,14,049,17*7C
1354234569236000000;rawNmea;$GPGSV,4,3,13,01,01,310,,09,10,040,,11,16,310,,31,01,171,*73
1354234569242000000;rawNmea;$GPGSV,4,4,13,32,09,267,*40
1354234569248673282;compass/AK8973 Magnetic Field;22.5 -9.0 34.8125 3
1354234569248642282;accel/kr3dh;-0.05448139 -0.05448139 9.847511 3
1354234569248642282;linaccel/Linear Acceleration Sensor;-0.032201365 -0.061379507 0.059898376 3
1354234569248612282;orientation/AK8973 Compass;247.73438 0.3125 -0.3125 1
1354234569258000000;rawNmea;$GPGGA,001608.0,3752.504213,N,12215.508764,W,1,07,1.2,126.9,M,-26.0,M,,*6F
1354234569260000000;rawNmea;$GPVTG,307.6,T,307.6,M,0.0,N,0.0,K,A*23
1354234569263000000;rawNmea;$GPRMC,001608.0,A,3752.504213,N,12215.508764,W,0.0,307.6,301112,,,A*7E
1354234569265000000;rawNmea;$GPGSA,A,3,03,06,14,18,19,21,24,,,,,,2.2,1.2,1.9*3D
1354234568000000000;latLngE7Gps;378750702 -1222584793 24.0 -1.0 0.0
1354234569346115282;compass/AK8973 Magnetic Field;22.5 -9.0 34.5625 3
1354234569346085282;accel/kr3dh;0.05448139 0.013620348 9.765789 3
1354234569346085282;linaccel/Linear Acceleration Sensor;0.08259607 -8.90038E-4 -0.035286903 3
1354234569346024282;orientation/AK8973 Compass;247.75 -0.078125 0.3125 1
1354234569452012207;wifi;00:22:90:39:07:12,UNKNOWN,-74 00:17:df:a8:60:62,UNKNOWN,-80 00:17:df:a7:4c:f2,UNKNOWN,-81 b8:c7:5d:08:bd:fd,UNKNOWN,-87 00:22:90:39:07:15,UNKNOWN,-74 00:17:df:a7:33:15,UNKNOWN,-76 00:17:df:a7:4c:f5,UNKNOWN,-85 00:22:90:39:65:b5,UNKNOWN,-91 00:23:04:89:cd:b1,UNKNOWN,-73 00:22:90:39:07:10,UNKNOWN,-75 00:22:90:39:07:16,UNKNOWN,-75 00:17:df:a7:33:16,UNKNOWN,-75 00:22:90:39:07:11,UNKNOWN,-76 00:17:df:a8:60:60,UNKNOWN,-80 00:17:df:a7:33:10,UNKNOWN,-81 00:17:df:a8:60:66,UNKNOWN,-82 00:17:df:a7:4c:f6,UNKNOWN,-83 00:17:df:a7:33:11,UNKNOWN,-79 00:17:df:a7:4c:f1,UNKNOWN,-86 00:22:90:39:65:b0,UNKNOWN,-90 
1354234569446854282;compass/AK8973 Magnetic Field;22.0 -9.0 34.8125 3
1354234569446823282;accel/kr3dh;-0.05448139 -0.0 9.820271 3
1354234569446823282;linaccel/Linear Acceleration Sensor;-0.026732612 -0.0062387087 0.0058918 3
1354234569446762282;orientation/AK8973 Compass;247.76563 0.0 -0.3125 1
1354234569541275282;accel/kr3dh;-0.027240695 -0.040861044 9.724928 3
1354234569541275282;compass/AK8973 Magnetic Field;22.25 -8.75 34.5625 3
1354234569541275282;linaccel/Linear Acceleration Sensor;-0.0057979915 -0.03624058 -0.09214783 3
1354234569541245282;orientation/AK8973 Compass;247.84375 0.25 -0.171875 1
1354234569634812282;compass/AK8973 Magnetic Field;22.75 -8.25 34.0625 3
1354234569634781282;orientation/AK8973 Compass;247.96875 -0.3125 -0.484375 1
1354234569634781282;accel/kr3dh;-0.08172209 0.05448139 9.861132 3
1354234569634781282;linaccel/Linear Acceleration Sensor;-0.06511536 0.06529135 0.052459717 3
1354234569728348282;accel/kr3dh;-0.040861044 0.013620348 9.670447 3
1354234569728348282;compass/AK8973 Magnetic Field;22.75 -8.5 33.5625 3
1354234569728348282;linaccel/Linear Acceleration Sensor;-0.020039968 0.023823518 -0.12503338 3
1354234569728318282;orientation/AK8973 Compass;248.0625 -0.078125 -0.25 1
1354234569822769282;compass/AK8973 Magnetic Field;23.0 -8.5 33.3125 3
1354234569822739282;accel/kr3dh;0.0 -0.027240695 9.833891 3
1354234569822739282;linaccel/Linear Acceleration Sensor;0.032695346 -0.024093099 0.050887108 3
1354234569822708282;orientation/AK8973 Compass;248.1875 0.171875 -0.0 1
1354234569926895282;compass/AK8973 Magnetic Field;22.75 -8.5 33.8125 3
1354234569926865282;accel/kr3dh;0.040861044 0.040861044 9.80665 3
1354234569926865282;linaccel/Linear Acceleration Sensor;0.08203359 0.034620613 0.03288269 3
1354234569926834282;orientation/AK8973 Compass;248.25 -0.25 0.25 1
1354234570021653282;accel/kr3dh;-0.08172209 -0.095342435 9.833891 3
1354234570021653282;compass/AK8973 Magnetic Field;22.5 -9.0 34.3125 3
1354234570021653282;linaccel/Linear Acceleration Sensor;-0.046027884 -0.10462483 0.060167313 3
1354234570021622282;orientation/AK8973 Compass;248.3125 0.5625 -0.484375 1
1354234570115799282;compass/AK8973 Magnetic Field;22.5 -8.5 35.0625 3
1354234570115769282;accel/kr3dh;-0.027240695 -0.0 9.80665 3
1354234570115769282;linaccel/Linear Acceleration Sensor;-0.0048199873 -0.0035360288 0.021709442 3
1354234570115738282;orientation/AK8973 Compass;248.375 0.0 -0.171875 1
1354234570238511229;wifi;00:22:90:39:07:12,UNKNOWN,-74 00:17:df:a7:33:12,UNKNOWN,-78 00:17:df:a7:4c:f2,UNKNOWN,-83 00:22:90:39:65:b2,UNKNOWN,-93 00:23:04:89:cd:b5,UNKNOWN,-78 00:22:90:39:07:15,UNKNOWN,-80 00:17:df:a7:4c:f5,UNKNOWN,-82 00:17:df:a8:60:65,UNKNOWN,-82 00:17:df:a7:33:15,UNKNOWN,-79 00:22:90:39:65:b5,UNKNOWN,-92 00:23:04:89:cd:b0,UNKNOWN,-66 00:23:04:89:cd:b1,UNKNOWN,-67 00:22:90:39:07:11,UNKNOWN,-75 00:23:04:89:cd:b6,UNKNOWN,-77 00:17:df:a7:33:11,UNKNOWN,-78 00:17:df:a7:33:16,UNKNOWN,-78 00:17:df:a7:33:10,UNKNOWN,-79 00:13:5f:55:d8:b0,UNKNOWN,-81 00:22:90:39:07:16,UNKNOWN,-81 00:22:90:39:07:10,UNKNOWN,-82 00:17:df:a7:4c:f6,UNKNOWN,-83 00:17:df:a8:60:66,UNKNOWN,-83 00:22:90:39:65:b6,UNKNOWN,-85 08:ed:b9:5d:b2:0c,UNKNOWN,-95 
1354234570234574282;compass/AK8973 Magnetic Field;22.75 -8.25 35.3125 3
1354234570234543282;accel/kr3dh;-0.05448139 -0.027240695 9.697687 3
1354234570234543282;linaccel/Linear Acceleration Sensor;-0.03801828 -0.0134687545 -0.105392456 3
1354234570234482282;orientation/AK8973 Compass;248.5 0.171875 -0.34375 1
1354234570246000000;rawNmea;$GPGSV,4,1,13,03,32,240,20,06,32,220,27,14,78,157,19,18,33,067,24*75
1354234570248000000;rawNmea;$GPGSV,4,2,13,19,42,275,27,21,19,129,20,22,66,025,22,24,14,049,17*7A
1354234570256000000;rawNmea;$GPGSV,4,3,13,01,01,310,,09,10,040,,11,16,310,,31,01,171,*73
1354234570258000000;rawNmea;$GPGSV,4,4,13,32,09,267,*40
1354234570263000000;rawNmea;$GPGGA,001609.0,3752.504185,N,12215.508772,W,1,06,1.2,126.8,M,-26.0,M,,*65
1354234570265000000;rawNmea;$GPVTG,307.6,T,307.6,M,0.0,N,0.0,K,A*23
1354234570267000000;rawNmea;$GPRMC,001609.0,A,3752.504185,N,12215.508772,W,0.0,307.6,301112,,,A*74
1354234570269000000;rawNmea;$GPGSA,A,3,03,06,14,18,19,21,,,,,,,2.2,1.2,1.9*3B
1354234569000000000;latLngE7Gps;378750697 -1222584795 25.0 -1.0 0.0
1354234570339218282;orientation/AK8973 Compass;248.51563 0.0 0.21875 1
1354234570339218282;accel/kr3dh;0.040861044 -0.0 9.861132 3
1354234570339218282;compass/AK8973 Magnetic Field;22.75 -8.75 34.8125 3
1354234570339218282;linaccel/Linear Acceleration Sensor;0.064965524 0.026166048 0.05640793 3
1354234570433945282;compass/AK8973 Magnetic Field;22.75 -8.75 34.5625 3
1354234570433915282;accel/kr3dh;0.0 0.10896278 9.765789 3
1354234570433915282;linaccel/Linear Acceleration Sensor;0.03030011 0.13598275 -0.028799057 3
1354234570433853282;orientation/AK8973 Compass;248.48438 -0.640625 -0.0 1
1354234570532181282;compass/AK8973 Magnetic Field;23.5 -9.25 34.8125 3
1354234570532151282;accel/kr3dh;-0.05448139 -0.0 9.738548 3
1354234570532151282;linaccel/Linear Acceleration Sensor;-0.02882639 0.012404142 -0.04529667 3
1354234570532090282;orientation/AK8973 Compass;248.5 0.0 -0.3125 1
1354234570635300282;compass/AK8973 Magnetic Field;23.25 -9.25 34.8125 3
1354234570635269282;accel/kr3dh;-0.06810174 -0.0 9.765789 3
1354234570635269282;linaccel/Linear Acceleration Sensor;-0.051681712 -0.013010673 -0.011606216 3
1354234570635239282;orientation/AK8973 Compass;248.5 0.0 -0.390625 1
1354234570730362282;accel/kr3dh;-0.040861044 0.013620348 9.847511 3
1354234570730362282;compass/AK8973 Magnetic Field;24.0 -9.0 34.8125 3
1354234570730362282;linaccel/Linear Acceleration Sensor;-0.023713332 -0.016939893 0.075265884 3
1354234570730332282;orientation/AK8973 Compass;248.5625 -0.078125 -0.21875 1
1354234570823136282;compass/AK8973 Magnetic Field;24.25 -8.5 35.0625 3
1354234570823105282;orientation/AK8973 Compass;248.67188 -0.171875 0.25 1
1354234570823105282;accel/kr3dh;0.040861044 0.027240695 9.820271 3
1354234570823105282;linaccel/Linear Acceleration Sensor;0.06847162 -0.0060306285 0.048819542 3
1354234570923172282;compass/AK8973 Magnetic Field;23.75 -8.25 35.3125 3
1354234570923142282;accel/kr3dh;-0.013620348 0.095342435 9.779409 3
1354234570923142282;linaccel/Linear Acceleration Sensor;0.02192653 0.06860712 -0.0023584366 3
1354234570923020282;orientation/AK8973 Compass;248.76563 -0.5625 -0.078125 1
1354234571019760282;orientation/AK8973 Compass;248.85938 -0.078125 -0.25 1
1354234571019760282;accel/kr3dh;-0.040861044 0.013620348 9.80665 3
1354234571019760282;compass/AK8973 Magnetic Field;23.75 -8.5 35.0625 3
1354234571019760282;linaccel/Linear Acceleration Sensor;-0.010631222 -0.011696595 0.0095386505 3
1354234571100846435;wifi;00:22:90:39:07:12,UNKNOWN,-76 00:17:df:a7:33:12,UNKNOWN,-78 00:23:04:89:cd:b2,UNKNOWN,-80 00:17:df:a7:4c:f2,UNKNOWN,-84 28:cf:da:b8:1e:d5,UNKNOWN,-91 00:22:90:39:07:15,UNKNOWN,-77 00:17:df:a7:4c:f5,UNKNOWN,-82 00:17:df:a7:33:15,UNKNOWN,-78 00:17:df:a8:60:65,UNKNOWN,-83 00:23:04:89:cd:b6,UNKNOWN,-68 00:23:04:89:cd:b0,UNKNOWN,-69 00:22:90:39:07:16,UNKNOWN,-74 00:22:90:39:07:10,UNKNOWN,-76 00:22:90:39:07:11,UNKNOWN,-76 00:17:df:a7:33:16,UNKNOWN,-78 00:17:df:a7:33:11,UNKNOWN,-80 00:17:df:a8:60:60,UNKNOWN,-82 00:17:df:a7:4c:f0,UNKNOWN,-83 00:17:df:a7:4c:f1,UNKNOWN,-83 00:17:df:a7:4c:f6,UNKNOWN,-83 00:22:90:39:65:b1,UNKNOWN,-89 
1354234571113968282;accel/kr3dh;-0.12258313 -0.0 9.861132 3
1354234571113968282;compass/AK8973 Magnetic Field;23.0 -8.75 35.0625 3
1354234571113968282;linaccel/Linear Acceleration Sensor;-0.10240655 -0.031800285 0.05307007 3
1354234571113938282;orientation/AK8973 Compass;248.90625 0.0 -0.703125 1
1354234571206436282;compass/AK8973 Magnetic Field;23.0 -9.0 35.5625 3
1354234571206406282;orientation/AK8973 Compass;248.875 -0.25 -0.171875 1
1354234571206406282;accel/kr3dh;-0.027240695 0.040861044 9.79303 3
1354234571206406282;linaccel/Linear Acceleration Sensor;-0.006839011 0.003135264 -0.020563126 3
1354234571222000000;rawNmea;$GPGSV,4,1,13,03,32,240,20,06,32,220,27,14,78,157,19,18,33,067,26*77
1354234571226000000;rawNmea;$GPGSV,4,2,13,19,42,275,26,21,19,129,20,22,66,025,22,24,14,049,17*7B
1354234571233000000;rawNmea;$GPGSV,4,3,13,01,01,310,,09,10,040,,11,16,310,,31,01,171,*73
1354234571241000000;rawNmea;$GPGSV,4,4,13,32,09,267,*40
1354234571255000000;rawNmea;$GPGGA,001610.0,3752.504162,N,12215.508779,W,1,06,1.2,126.8,M,-26.0,M,,*6F
1354234571262000000;rawNmea;$GPVTG,307.6,T,307.6,M,0.0,N,0.0,K,A*23
1354234571269000000;rawNmea;$GPRMC,001610.0,A,3752.504162,N,12215.508779,W,0.0,307.6,301112,,,A*7E
1354234571276000000;rawNmea;$GPGSA,A,3,03,06,14,18,19,21,,,,,,,2.2,1.2,1.9*3B
1354234571300125282;compass/AK8973 Magnetic Field;22.75 -9.25 34.8125 3
1354234571300095282;accel/kr3dh;-0.027240695 0.027240695 9.765789 3
1354234571300095282;linaccel/Linear Acceleration Sensor;0.0069425795 -0.009382712 -0.050840378 3
1354234571300034282;orientation/AK8973 Compass;248.79688 -0.171875 -0.171875 1
1354234570000000000;latLngE7Gps;378750693 -1222584796 25.0 -1.0 0.0
1354234571397660282;compass/AK8973 Magnetic Field;22.5 -9.25 35.0625 3
1354234571397599282;accel/kr3dh;0.040861044 0.040861044 9.820271 3
1354234571397599282;linaccel/Linear Acceleration Sensor;0.08919056 0.009693872 0.0049734116 3
1354234571397568282;orientation/AK8973 Compass;248.70313 -0.25 0.25 1
1354234571495652282;compass/AK8973 Magnetic Field;22.5 -9.0 35.3125 3
1354234571495591282;accel/kr3dh;-0.013620348 -0.0 9.820271 3
1354234571495591282;linaccel/Linear Acceleration Sensor;0.032577004 -0.027541421 0.01166153 3
1354234571495560282;orientation/AK8973 Compass;248.67188 0.0 -0.078125 1
1354234571597489282;compass/AK8973 Magnetic Field;22.25 -9.25 34.5625 3
1354234571597458282;accel/kr3dh;-0.095342435 -0.0 9.765789 3
1354234571597458282;linaccel/Linear Acceleration Sensor;-0.066900104 -0.025659453 -0.03619957 3
1354234571597397282;orientation/AK8973 Compass;248.60938 0.0 -0.5625 1
1354234571695023282;compass/AK8973 Magnetic Field;23.0 -9.5 34.5625 3
1354234571694992282;accel/kr3dh;-0.06810174 0.05448139 9.861132 3
1354234571694992282;linaccel/Linear Acceleration Sensor;-0.05199195 0.032262962 0.060983658 3
1354234571694931282;orientation/AK8973 Compass;248.53125 -0.3125 -0.390625 1
1354234571794998282;accel/kr3dh;-0.12258313 0.027240695 9.779409 3
1354234571794998282;compass/AK8973 Magnetic Field;23.0 -9.75 34.3125 3
1354234571794998282;linaccel/Linear Acceleration Sensor;-0.09833194 0.00861972 -0.023086548 3
1354234571794968282;orientation/AK8973 Compass;248.45313 -0.171875 -0.734375 1
1354234571890335282;compass/AK8973 Magnetic Field;22.75 -9.0 34.0625 3
1354234571890305282;accel/kr3dh;-0.027240695 0.05448139 9.833891 3
1354234571890305282;linaccel/Linear Acceleration Sensor;0.020432735 0.034599457 0.02695465 3
1354234571890244282;orientation/AK8973 Compass;248.42188 -0.3125 -0.171875 1
1354234571932023194;wifi;00:23:04:89:cd:b2,UNKNOWN,-70 00:22:90:39:07:12,UNKNOWN,-77 00:17:df:a7:33:12,UNKNOWN,-80 00:17:df:a8:60:62,UNKNOWN,-82 00:17:df:a7:4c:f2,UNKNOWN,-88 00:22:90:39:65:b2,UNKNOWN,-89 28:cf:da:b8:1e:d5,UNKNOWN,-92 00:23:04:89:cd:b5,UNKNOWN,-69 00:22:90:39:07:15,UNKNOWN,-80 00:17:df:a7:4c:f5,UNKNOWN,-83 00:17:df:a7:33:15,UNKNOWN,-79 00:23:04:89:cd:b1,UNKNOWN,-71 00:17:df:a7:33:16,UNKNOWN,-78 00:23:04:89:cd:b6,UNKNOWN,-79 00:22:90:39:07:11,UNKNOWN,-80 00:17:df:a7:33:11,UNKNOWN,-80 00:22:90:39:07:16,UNKNOWN,-80 00:17:df:a7:4c:f1,UNKNOWN,-81 00:17:df:a7:4c:f6,UNKNOWN,-83 
1354234571986496282;accel/kr3dh;-0.027240695 -0.013620348 9.765789 3
1354234571986496282;compass/AK8973 Magnetic Field;23.5 -8.75 34.0625 3
1354234571986496282;linaccel/Linear Acceleration Sensor;0.043648534 -0.039722394 -0.045113564 3
1354234571986466282;orientation/AK8973 Compass;248.5 0.078125 -0.171875 1
1354234572082321282;compass/AK8973 Magnetic Field;23.0 -8.5 34.3125 3
1354234572082291282;accel/kr3dh;-0.027240695 -0.027240695 9.711308 3
1354234572082291282;linaccel/Linear Acceleration Sensor;0.0506119 -0.05757116 -0.09814072 3
1354234572082260282;orientation/AK8973 Compass;248.59375 0.171875 -0.171875 1
1354234572194596282;compass/AK8973 Magnetic Field;23.5 -8.25 34.3125 3
1354234572194535282;accel/kr3dh;-0.08172209 0.013620348 9.820271 3
1354234572194535282;linaccel/Linear Acceleration Sensor;-0.01868213 -0.0092090415 0.02538681 3
1354234572194504282;orientation/AK8973 Compass;248.73438 -0.078125 -0.484375 1
1354234572183000000;latLngE7Network;378754280 -1222587721 45.0 -1.0 -1.0
1354234572223000000;rawNmea;$GPGSV,4,1,13,03,32,240,20,06,32,220,29,14,78,157,19,18,33,067,24*7B
1354234572224000000;rawNmea;$GPGSV,4,2,13,19,42,275,26,21,19,129,20,22,66,025,22,24,14,049,17*7B
1354234572227000000;rawNmea;$GPGSV,4,3,13,01,01,310,,09,10,040,,11,16,310,,31,01,171,*73
1354234572230000000;rawNmea;$GPGSV,4,4,13,32,09,267,*40
1354234572243000000;rawNmea;$GPGGA,001611.0,3752.504159,N,12215.508784,W,1,06,1.6,126.8,M,-26.0,M,,*60
1354234572245000000;rawNmea;$GPVTG,307.6,T,307.6,M,0.0,N,0.0,K,A*23
1354234572246000000;rawNmea;$GPRMC,001611.0,A,3752.504159,N,12215.508784,W,0.0,307.6,301112,,,A*75
1354234572247000000;rawNmea;$GPGSA,A,3,03,06,14,18,19,21,,,,,,,2.9,1.6,2.4*3A
1354234571000000000;latLngE7Gps;378750693 -1222584797 24.0 -1.0 0.0
1354234572291306282;accel/kr3dh;0.0 0.040861044 9.833891 3
1354234572291306282;compass/AK8973 Magnetic Field;23.5 -9.25 34.5625 3
1354234572291306282;linaccel/Linear Acceleration Sensor;0.047450047 0.03120124 0.0554657 3
1354234572291275282;orientation/AK8973 Compass;248.70313 -0.25 -0.0 1
1354234572387619282;compass/AK8973 Magnetic Field;22.75 -9.5 34.8125 3
1354234572387589282;accel/kr3dh;-0.05448139 -0.095342435 9.80665 3
1354234572387589282;linaccel/Linear Acceleration Sensor;-0.016054962 -0.09436431 0.034445763 3
1354234572387528282;orientation/AK8973 Compass;248.67188 0.5625 -0.3125 1
1354234572484726282;compass/AK8973 Magnetic Field;22.75 -9.25 34.5625 3
1354234572484696282;accel/kr3dh;0.0 0.05448139 9.779409 3
1354234572484696282;linaccel/Linear Acceleration Sensor;0.034873772 0.060605835 -0.002568245 3
1354234572484635282;orientation/AK8973 Compass;248.59375 -0.3125 -0.0 1
1354234572580765282;compass/AK8973 Magnetic Field;22.25 -9.5 34.5625 3
1354234572580735282;orientation/AK8973 Compass;248.48438 0.0 0.25 1
1354234572580735282;accel/kr3dh;0.040861044 -0.0 9.833891 3
1354234572580735282;linaccel/Linear Acceleration Sensor;0.07196568 0.008758494 0.036437035 3
1354234572677964282;compass/AK8973 Magnetic Field;22.75 -9.0 34.5625 3
1354234572677933282;accel/kr3dh;-0.027240695 0.040861044 9.80665 3
1354234572677933282;linaccel/Linear Acceleration Sensor;-0.005125804 0.04816801 -0.0014324188 3
1354234572677872282;orientation/AK8973 Compass;248.46875 -0.25 -0.171875 1
1354234572758317139;wifi;00:23:04:89:cd:b2,UNKNOWN,-70 00:22:90:39:07:12,UNKNOWN,-75 00:17:df:a8:60:62,UNKNOWN,-82 00:17:df:a7:33:12,UNKNOWN,-80 00:17:df:a7:4c:f2,UNKNOWN,-85 00:23:04:89:cd:b5,UNKNOWN,-68 00:22:90:39:07:15,UNKNOWN,-73 00:23:04:89:cd:b0,UNKNOWN,-68 00:23:04:89:cd:b6,UNKNOWN,-70 00:22:90:39:07:16,UNKNOWN,-72 00:22:90:39:07:11,UNKNOWN,-75 00:22:90:39:07:10,UNKNOWN,-75 00:17:df:a8:60:66,UNKNOWN,-81 00:17:df:a8:60:60,UNKNOWN,-81 00:23:04:89:cd:b1,UNKNOWN,-81 00:17:df:a7:4c:f1,UNKNOWN,-82 
1354234572779404282;compass/AK8973 Magnetic Field;23.0 -8.75 34.5625 3
1354234572779373282;orientation/AK8973 Compass;248.48438 -0.25 0.25 1
1354234572779373282;accel/kr3dh;0.040861044 0.040861044 9.765789 3
1354234572779373282;linaccel/Linear Acceleration Sensor;0.048673823 0.038874447 -0.045801163 3
1354234572871781282;accel/kr3dh;0.040861044 -0.10896278 9.820271 3
1354234572871781282;compass/AK8973 Magnetic Field;22.75 -8.75 34.8125 3
1354234572871781282;linaccel/Linear Acceleration Sensor;0.03592057 -0.12209042 0.01036644 3
1354234572871750282;orientation/AK8973 Compass;248.5625 0.640625 0.25 1
1354234572966019282;compass/AK8973 Magnetic Field;23.25 -8.5 35.0625 3
1354234572965958282;accel/kr3dh;0.0 0.013620348 9.779409 3
1354234572965958282;linaccel/Linear Acceleration Sensor;-0.01516781 -0.0030326536 -0.024998665 3
1354234572965927282;orientation/AK8973 Compass;248.64063 -0.078125 -0.0 1
1354234573061142282;orientation/AK8973 Compass;248.6875 0.0 0.21875 1
1354234573061142282;accel/kr3dh;0.040861044 -0.0 9.874752 3
1354234573061142282;compass/AK8973 Magnetic Field;23.5 -8.75 35.3125 3
1354234573061142282;linaccel/Linear Acceleration Sensor;0.018177554 -0.006531123 0.07528782 3
1354234573156632282;accel/kr3dh;0.0 -0.05448139 9.820271 3
1354234573156632282;linaccel/Linear Acceleration Sensor;-0.026223708 -0.045164354 0.019286156 3
1354234573156601282;orientation/AK8973 Compass;248.76563 0.3125 -0.0 1
1354234573221000000;rawNmea;$GPGSV,4,1,13,03,32,240,19,06,32,220,28,14,78,157,19,18,33,067,25*71
1354234573222000000;rawNmea;$GPGSV,4,2,13,19,42,275,27,21,19,129,20,24,14,049,17,01,01,310,*7F
1354234573232000000;rawNmea;$GPGSV,4,3,13,09,10,040,,11,16,310,,22,66,025,,31,01,171,*76
1354234573238000000;rawNmea;$GPGSV,4,4,13,32,09,267,*40
1354234573251000000;rawNmea;$GPGGA,001612.0,3752.504152,N,12215.508790,W,1,06,1.6,126.8,M,-26.0,M,,*6D
1354234573257828282;compass/AK8973 Magnetic Field;24.0 -9.25 35.3125 3
1354234573257767282;accel/kr3dh;-0.027240695 0.013620348 9.724928 3
1354234573257767282;linaccel/Linear Acceleration Sensor;-0.051638734 0.03404263 -0.084926605 3
1354234573257737282;orientation/AK8973 Compass;248.76563 -0.078125 -0.171875 1
1354234573264000000;rawNmea;$GPVTG,307.6,T,307.6,M,0.0,N,0.0,K,A*23
1354234573267000000;rawNmea;$GPRMC,001612.0,A,3752.504152,N,12215.508790,W,0.0,307.6,301112,,,A*78
1354234573269000000;rawNmea;$GPGSA,A,3,03,06,14,18,19,21,,,,,,,2.9,1.6,2.4*3A
1354234572000000000;latLngE7Gps;378750691 -1222584798 22.0 -1.0 0.0
1354234573355362282;compass/AK8973 Magnetic Field;23.75 -9.25 35.5625 3
1354234573355332282;orientation/AK8973 Compass;248.78125 0.078125 -0.171875 1
1354234573355332282;accel/kr3dh;-0.027240695 -0.013620348 9.724928 3
1354234573355332282;linaccel/Linear Acceleration Sensor;-0.043752715 0.009844645 -0.08843136 3
1354234573451187282;compass/AK8973 Magnetic Field;23.25 -9.0 35.0625 3
1354234573451126282;accel/kr3dh;-0.040861044 -0.027240695 9.779409 3
1354234573451126282;linaccel/Linear Acceleration Sensor;-0.043620866 -0.006340012 -0.021109581 3
1354234573451065282;orientation/AK8973 Compass;248.8125 0.171875 -0.25 1
1354234573581284667;wifi;00:22:90:39:07:12,UNKNOWN,-77 00:17:df:a7:33:12,UNKNOWN,-80 00:17:df:a8:60:62,UNKNOWN,-82 00:17:df:a7:4c:f2,UNKNOWN,-83 00:23:04:89:cd:b2,UNKNOWN,-83 28:cf:da:b8:1e:d5,UNKNOWN,-91 00:23:04:89:bb:f2,UNKNOWN,-97 00:23:04:89:cd:b5,UNKNOWN,-71 00:17:df:a8:60:65,UNKNOWN,-82 00:17:df:a7:4c:f5,UNKNOWN,-82 00:17:df:a7:33:15,UNKNOWN,-79 00:23:04:89:cd:b6,UNKNOWN,-70 00:23:04:89:cd:b0,UNKNOWN,-72 00:22:90:39:07:11,UNKNOWN,-77 00:17:df:a7:33:11,UNKNOWN,-79 00:22:90:39:07:16,UNKNOWN,-80 00:17:df:a7:33:10,UNKNOWN,-80 00:17:df:a7:33:16,UNKNOWN,-80 00:22:90:39:07:10,UNKNOWN,-81 00:23:04:89:cd:b1,UNKNOWN,-81 00:13:5f:55:d8:b0,UNKNOWN,-81 00:17:df:a8:60:66,UNKNOWN,-81 00:17:df:a8:60:61,UNKNOWN,-82 00:17:df:a7:4c:f1,UNKNOWN,-83 00:17:df:a7:4c:f6,UNKNOWN,-83 00:17:df:a7:4c:f0,UNKNOWN,-83 00:22:90:39:65:b0,UNKNOWN,-87 
1354234573558121282;accel/kr3dh;-0.095342435 -0.0 9.847511 3
1354234573558121282;compass/AK8973 Magnetic Field;23.25 -9.5 35.0625 3
1354234573558121282;linaccel/Linear Acceleration Sensor;-0.07832037 0.015790496 0.072678566 3
1354234573558060282;orientation/AK8973 Compass;248.76563 0.0 -0.5625 1
1354234573667679282;compass/AK8973 Magnetic Field;22.75 -8.75 35.3125 3
1354234573667649282;orientation/AK8973 Compass;248.76563 -0.25 -0.25 1
1354234573667649282;accel/kr3dh;-0.040861044 0.040861044 9.765789 3
1354234573667649282;linaccel/Linear Acceleration Sensor;-0.0025779977 0.05229813 0.002026558 3
1354234573760025282;accel/kr3dh;0.0 -0.0 9.874752 3
1354234573760025282;compass/AK8973 Magnetic Field;22.5 -8.75 35.3125 3
1354234573760025282;linaccel/Linear Acceleration Sensor;0.053689644 0.0061186347 0.102119446 3
1354234573759995282;orientation/AK8973 Compass;248.76563 0.0 -0.0 1
1354234573853318282;compass/AK8973 Magnetic Field;22.5 -9.0 35.3125 3
1354234573853287282;accel/kr3dh;-0.05448139 0.040861044 9.80665 3
1354234573853287282;linaccel/Linear Acceleration Sensor;0.0051473677 0.038315766 0.0134038925 3
1354234573853257282;orientation/AK8973 Compass;248.71875 -0.25 -0.3125 1
1354234573950608282;compass/AK8973 Magnetic Field;22.5 -8.0 35.3125 3
1354234573950577282;orientation/AK8973 Compass;248.78125 -0.484375 -0.078125 1
1354234573950577282;accel/kr3dh;-0.013620348 0.08172209 9.765789 3
1354234573950577282;linaccel/Linear Acceleration Sensor;0.039890513 0.067813516 -0.047756195 3
1354234574046738282;compass/AK8973 Magnetic Field;22.75 -8.25 34.8125 3
1354234574046707282;accel/kr3dh;0.0 0.027240695 9.820271 3
1354234574046707282;linaccel/Linear Acceleration Sensor;0.04117714 5.446039E-4 -0.0022640228 3
1354234574046677282;orientation/AK8973 Compass;248.84375 -0.171875 -0.0 1
1354234574142716282;accel/kr3dh;-0.013620348 0.013620348 9.861132 3
1354234574142716282;compass/AK8973 Magnetic Field;22.75 -8.25 34.5625 3
1354234574142716282;linaccel/Linear Acceleration Sensor;0.014825414 -0.025491014 0.041838646 3
1354234574142685282;orientation/AK8973 Compass;248.92188 -0.078125 -0.078125 1
1354234574225000000;rawNmea;$GPGSV,4,1,13,03,32,240,19,06,32,220,28,14,78,157,19,18,33,067,25*71
1354234574231000000;rawNmea;$GPGSV,4,2,13,19,42,275,27,21,19,129,20,24,14,049,17,01,01,310,*7F
1354234574240769282;compass/AK8973 Magnetic Field;22.5 -8.25 34.3125 3
1354234574240738282;accel/kr3dh;-0.10896278 0.08172209 9.847511 3
1354234574240738282;linaccel/Linear Acceleration Sensor;-0.089802876 0.035497986 0.033003807 3
1354234574240677282;orientation/AK8973 Compass;248.95313 -0.46875 -0.640625 1
1354234574237000000;rawNmea;$GPGSV,4,3,13,09,10,040,,11,16,310,,22,66,025,,31,01,171,*76
1354234574252000000;rawNmea;$GPGSV,4,4,13,32,09,267,*40
1354234574256000000;rawNmea;$GPGGA,001613.0,3752.504133,N,12215.508798,W,1,06,5.0,126.8,M,-26.0,M,,*61
1354234574259000000;rawNmea;$GPVTG,307.6,T,307.6,M,0.0,N,0.0,K,A*23
1354234574261000000;rawNmea;$GPRMC,001613.0,A,3752.504133,N,12215.508798,W,0.0,307.6,301112,,,A*76
1354234574263000000;rawNmea;$GPGSA,A,3,03,06,14,18,19,21,,,,,,,18.6,5.0,17.9*35
1354234573000000000;latLngE7Gps;378750688 -1222584799 22.0 -1.0 0.0
1354234574369279053;wifi;00:23:04:89:cd:b2,UNKNOWN,-69 00:17:df:a7:33:12,UNKNOWN,-77 00:17:df:a8:60:62,UNKNOWN,-81 00:22:90:39:07:12,UNKNOWN,-83 00:17:df:a7:4c:f2,UNKNOWN,-86 28:cf:da:b8:1e:d5,UNKNOWN,-91 00:23:04:89:cd:b5,UNKNOWN,-71 00:22:90:39:07:15,UNKNOWN,-75 00:17:df:a7:33:15,UNKNOWN,-79 00:17:df:a8:60:65,UNKNOWN,-81 00:17:df:a7:4c:f5,UNKNOWN,-85 00:23:04:89:bb:f5,UNKNOWN,-97 00:23:04:89:cd:b1,UNKNOWN,-70 00:23:04:89:cd:b0,UNKNOWN,-71 00:22:90:39:07:10,UNKNOWN,-76 00:22:90:39:07:16,UNKNOWN,-76 00:17:df:a7:33:11,UNKNOWN,-77 00:17:df:a7:33:16,UNKNOWN,-78 00:13:5f:55:d8:b0,UNKNOWN,-79 00:17:df:a7:33:10,UNKNOWN,-79 00:23:04:89:cd:b6,UNKNOWN,-80 00:17:df:a8:60:60,UNKNOWN,-82 00:17:df:a8:60:66,UNKNOWN,-82 00:17:df:a7:4c:f1,UNKNOWN,-83 00:17:df:a7:4c:f6,UNKNOWN,-85 00:22:90:39:65:b1,UNKNOWN,-94 00:23:04:89:c3:d0,UNKNOWN,-95 
1354234574346970282;compass/AK8973 Magnetic Field;22.25 -8.5 34.5625 3
1354234574346939282;accel/kr3dh;-0.05448139 -0.0 9.670447 3
1354234574346939282;linaccel/Linear Acceleration Sensor;-0.033471838 -0.045870326 -0.14629555 3
