1354234640855627198;metadata_log_format;3 # nanosecond timing
1354234640857397217;metadata_system_time;1354234640858
1354234640858739991;metadata_surveyName;/sdcard/LocationTracker/1354234640844.txt
1354234640860479493;metadata_notes;
1354234640861913819;metadata_deviceInfo;Board: bryce Brand: Verizon Device: bryce Hardware: qcom Manufacturer: LGE Model: VS910 4G Product: bryce
1354234624500000000;latLngE7LastKnown;378754090 -1222587361 45.0 -1.0 -1.0
1354234640930974329;compass/AK8973 Magnetic Field;39.6875 10.9375 36.375 3
1354234640930944329;orientation/AK8973 Compass;284.23438 0.171875 -1.203125 1
1354234640930944329;accel/kr3dh;-0.20430522 -0.027240695 9.779409 3
1354234640930944329;linaccel/Linear Acceleration Sensor;0.0 0.0 0.0 3
1354234640980108399;wifi;00:23:04:89:cd:b2,UNKNOWN,-74 00:17:df:a8:60:62,UNKNOWN,-81 28:cf:da:b8:1e:d5,UNKNOWN,-82 00:22:90:39:07:12,UNKNOWN,-88 00:17:df:a7:4c:f2,UNKNOWN,-90 00:23:04:89:cd:b5,UNKNOWN,-70 00:17:df:a7:4c:f5,UNKNOWN,-86 00:22:90:39:07:15,UNKNOWN,-89 00:23:04:89:cd:b6,UNKNOWN,-70 00:23:04:89:cd:b0,UNKNOWN,-70 00:23:04:89:cd:b1,UNKNOWN,-75 00:13:5f:55:d8:b0,UNKNOWN,-76 00:17:df:a8:60:61,UNKNOWN,-82 00:22:90:39:07:11,UNKNOWN,-82 00:17:df:a8:60:66,UNKNOWN,-86 00:17:df:a7:4c:f1,UNKNOWN,-87 00:22:90:39:65:b6,UNKNOWN,-88 00:22:90:39:65:b1,UNKNOWN,-92 00:1f:9e:8d:e3:30,UNKNOWN,-97 
1354234640987000000;latLngE7Network;378754090 -1222587361 45.0 -1.0 -1.0
1354234641030736329;accel/kr3dh;-0.14982383 -0.040861044 9.602345 3
1354234641030736329;compass/AK8973 Magnetic Field;40.4375 10.9375 36.625 3
1354234641030736329;linaccel/Linear Acceleration Sensor;0.053551152 -0.0133877825 -0.1740408 3
1354234641030706329;orientation/AK8973 Compass;284.29688 0.25 -0.890625 1
1354234641123204329;accel/kr3dh;-0.21792556 -0.0 9.861132 3
1354234641123204329;compass/AK8973 Magnetic Field;40.4375 10.375 36.375 3
1354234641123204329;linaccel/Linear Acceleration Sensor;-0.018004894 0.028018316 0.09547043 3
1354234641123174329;orientation/AK8973 Compass;284.28125 0.0 -1.265625 1
1354234641221990329;compass/AK8973 Magnetic Field;40.4375 10.625 36.375 3
1354234641221959329;accel/kr3dh;-0.12258313 0.05448139 9.833891 3
1354234641221959329;linaccel/Linear Acceleration Sensor;0.07015281 0.08091961 0.083639145 3
1354234641221929329;orientation/AK8973 Compass;284.28125 -0.3125 -0.734375 1
1354234641231000000;rawNmea;$GPGSV,4,1,13,03,31,239,29,06,31,219,31,18,32,068,26,19,42,272,35*7D
1354234641235000000;rawNmea;$GPGSV,4,2,13,21,17,129,25,01,03,312,,09,10,039,,11,18,310,*7E
1354234641237000000;rawNmea;$GPGSV,4,3,13,14,79,149,,22,65,029,,24,13,046,,31,02,170,*73
1354234641239000000;rawNmea;$GPGSV,4,4,13,32,10,268,*47
1354234641246000000;rawNmea;$GPGGA,001720.0,3752.504914,N,12215.509013,W,1,06,5.1,127.7,M,-26.0,M,,*67
1354234641250000000;rawNmea;$GPVTG,307.6,T,307.6,M,0.0,N,0.0,K,A*23
1354234641253000000;rawNmea;$GPRMC,001720.0,A,3752.504914,N,12215.509013,W,0.0,307.6,301112,,,A*7F
1354234641255000000;rawNmea;$GPGSA,A,3,03,06,18,19,21,22,,,,,,,18.9,5.1,18.1*39
1354234640000000000;latLngE7Gps;378750818 -1222584835 22.0 -1.0 0.0
1354234641316686329;orientation/AK8973 Compass;284.28125 0.078125 -0.875 1
1354234641316686329;accel/kr3dh;-0.14982383 -0.013620348 9.833891 3
1354234641316686329;compass/AK8973 Magnetic Field;40.6875 10.375 36.0625 3
1354234641316686329;linaccel/Linear Acceleration Sensor;0.033563048 0.004820171 0.084028244 3
1354234641412145329;accel/kr3dh;-0.19068487 -0.0 9.79303 3
1354234641412145329;compass/AK8973 Magnetic Field;40.4375 9.875 35.3125 3
1354234641412145329;linaccel/Linear Acceleration Sensor;-0.018568054 0.004419264 0.021035194 3
1354234641412114329;orientation/AK8973 Compass;284.23438 0.0 -1.125 1
1354234641511083329;compass/AK8973 Magnetic Field;39.6875 9.875 34.8125 3
1354234641511052329;accel/kr3dh;-0.14982383 -0.12258313 9.80665 3
1354234641511052329;linaccel/Linear Acceleration Sensor;0.012164384 -0.12823202 0.0040779114 3
1354234641510991329;orientation/AK8973 Compass;284.25 0.734375 -0.859375 1
1354234641611394329;orientation/AK8973 Compass;284.20313 0.3125 -1.171875 1
1354234641611394329;accel/kr3dh;-0.20430522 -0.05448139 9.874752 3
1354234641611394329;compass/AK8973 Magnetic Field;39.9375 9.625 35.0625 3
1354234641611394329;linaccel/Linear Acceleration Sensor;-0.045653597 -0.052818578 0.052906036 3
1354234641704717329;compass/AK8973 Magnetic Field;39.6875 9.375 35.3125 3
1354234641704686329;accel/kr3dh;-0.12258313 -0.08172209 9.820271 3
1354234641704686329;linaccel/Linear Acceleration Sensor;0.039155804 -0.05697792 -0.008216858 3
1354234641704625329;orientation/AK8973 Compass;284.15625 0.46875 -0.734375 1
1354234641799505329;compass/AK8973 Magnetic Field;39.9375 9.875 35.3125 3
1354234641799474329;accel/kr3dh;-0.21792556 -0.095342435 9.861132 3
1354234641799474329;linaccel/Linear Acceleration Sensor;-0.050954506 -0.041467108 0.029643059 3
1354234641799413329;orientation/AK8973 Compass;284.15625 0.5625 -1.265625 1
1354234641837255617;wifi;00:23:04:89:cd:b2,UNKNOWN,-70 00:17:df:a8:60:62,UNKNOWN,-77 00:22:90:39:65:b2,UNKNOWN,-79 28:cf:da:b8:1e:d5,UNKNOWN,-83 00:17:df:a7:4c:f2,UNKNOWN,-90 00:17:df:a7:33:12,UNKNOWN,-91 00:17:df:a8:60:65,UNKNOWN,-80 00:17:df:a7:33:15,UNKNOWN,-84 00:22:90:39:65:b5,UNKNOWN,-90 00:17:df:a7:4c:f5,UNKNOWN,-90 00:23:04:89:cd:b1,UNKNOWN,-69 00:23:04:89:cd:b6,UNKNOWN,-71 00:17:df:a8:60:61,UNKNOWN,-78 00:17:df:a8:60:60,UNKNOWN,-79 00:23:04:89:cd:b0,UNKNOWN,-79 00:17:df:a8:60:66,UNKNOWN,-80 00:17:df:a7:33:10,UNKNOWN,-84 00:17:df:a7:33:11,UNKNOWN,-86 00:17:df:a7:4c:f1,UNKNOWN,-89 
1354234641895543329;compass/AK8973 Magnetic Field;40.1875 10.125 36.0625 3
1354234641895513329;orientation/AK8973 Compass;284.17188 0.484375 -0.5625 1
1354234641895513329;accel/kr3dh;-0.095342435 -0.08172209 9.861132 3
1354234641895513329;linaccel/Linear Acceleration Sensor;0.074538864 -0.0051269606 0.024648666 3
1354234641989171329;orientation/AK8973 Compass;284.14063 -0.21875 -1.03125 1
1354234641989171329;accel/kr3dh;-0.17706452 0.040861044 9.874752 3
1354234641989171329;compass/AK8973 Magnetic Field;40.1875 10.125 35.8125 3
1354234641989171329;linaccel/Linear Acceleration Sensor;-0.00868918 0.1275924 0.031042099 3
1354234642081823329;orientation/AK8973 Compass;284.1875 0.5625 -0.3125 1
1354234642081823329;accel/kr3dh;-0.05448139 -0.095342435 9.752169 3
1354234642081823329;compass/AK8973 Magnetic Field;39.9375 10.375 35.5625 3
1354234642081823329;linaccel/Linear Acceleration Sensor;0.10692884 -0.013013914 -0.09864807 3
1354234642175054329;compass/AK8973 Magnetic Field;39.9375 10.125 35.5625 3
1354234642175023329;accel/kr3dh;-0.21792556 -0.10896278 9.765789 3
1354234642175023329;linaccel/Linear Acceleration Sensor;-0.06842457 -0.041519158 -0.084937096 3
1354234642174993329;orientation/AK8973 Compass;284.20313 0.640625 -1.28125 1
1354234642230000000;rawNmea;$GPGSV,4,1,13,03,31,239,29,06,31,219,32,18,32,068,26,19,42,272,34*7F
1354234642235000000;rawNmea;$GPGSV,4,2,13,21,17,129,25,01,03,312,,09,10,039,,11,18,310,*7E
1354234642236000000;rawNmea;$GPGSV,4,3,13,14,79,149,,22,65,029,,24,13,046,,31,02,170,*73
1354234642238000000;rawNmea;$GPGSV,4,4,13,32,10,268,*47
1354234642243000000;rawNmea;$GPGGA,001721.0,3752.505001,N,12215.509016,W,1,06,5.2,127.8,M,-26.0,M,,*63
1354234642250000000;rawNmea;$GPVTG,307.6,T,307.6,M,0.0,N,0.0,K,A*23
1354234642257000000;rawNmea;$GPRMC,001721.0,A,3752.505001,N,12215.509016,W,0.0,307.6,301112,,,A*77
1354234642264000000;rawNmea;$GPGSA,A,3,03,06,18,19,21,22,,,,,,,18.9,5.2,18.1*3A
1354234642269902329;compass/AK8973 Magnetic Field;39.9375 10.125 35.0625 3
1354234642269872329;accel/kr3dh;-0.23154591 -0.027240695 9.779409 3
1354234642269872329;linaccel/Linear Acceleration Sensor;-0.09193872 0.0281139 -0.056257248 3
1354234642269841329;orientation/AK8973 Compass;284.1875 0.171875 -1.34375 1
1354234641000000000;latLngE7Gps;378750833 -1222584836 22.0 -1.0 0.0
1354234642365697329;compass/AK8973 Magnetic Field;39.6875 9.625 35.5625 3
1354234642365667329;accel/kr3dh;-0.16344418 -0.05448139 9.738548 3
1354234642365667329;linaccel/Linear Acceleration Sensor;-0.019866332 3.800541E-5 -0.06977272 3
1354234642365636329;orientation/AK8973 Compass;284.15625 0.3125 -0.953125 1
1354234642462072329;orientation/AK8973 Compass;284.14063 0.5625 -1.265625 1
1354234642462072329;accel/kr3dh;-0.21792556 -0.095342435 9.820271 3
1354234642462072329;linaccel/Linear Acceleration Sensor;-0.054851428 -0.03615325 0.039111137 3
1354234642557225329;compass/AK8973 Magnetic Field;39.6875 9.625 35.8125 3
1354234642557195329;accel/kr3dh;-0.12258313 -0.05448139 9.80665 3
1354234642557195329;linaccel/Linear Acceleration Sensor;0.061800532 0.008347657 0.040433884 3
1354234642557164329;orientation/AK8973 Compass;284.10938 0.3125 -0.734375 1
1354234642654638329;compass/AK8973 Magnetic Field;39.9375 9.625 35.8125 3
1354234642654607329;accel/kr3dh;-0.13620348 -0.0 9.861132 3
1354234642654607329;linaccel/Linear Acceleration Sensor;0.05708252 0.064462475 0.09196091 3
1354234642654546329;orientation/AK8973 Compass;284.0625 0.0 -0.78125 1
1354234642753484329;compass/AK8973 Magnetic Field;40.1875 10.375 35.5625 3
1354234642753454329;accel/kr3dh;-0.12258313 -0.12258313 9.820271 3
1354234642753454329;linaccel/Linear Acceleration Sensor;0.061028622 -0.060179435 0.03221321 3
1354234642753392329;orientation/AK8973 Compass;284.10938 0.734375 -0.734375 1
1354234642852117329;orientation/AK8973 Compass;284.14063 0.171875 -0.640625 1
1354234642852117329;accel/kr3dh;-0.10896278 -0.027240695 9.847511 3
1354234642852117329;linaccel/Linear Acceleration Sensor;0.052257784 0.030516574 0.03476906 3
1354234642963323733;wifi;00:22:90:39:07:12,UNKNOWN,-86 00:17:df:a7:4c:f2,UNKNOWN,-87 00:22:90:39:65:b2,UNKNOWN,-88 b8:c7:5d:08:bd:fd,UNKNOWN,-92 00:17:df:a8:60:65,UNKNOWN,-76 00:23:04:89:cd:b5,UNKNOWN,-80 00:22:90:39:07:15,UNKNOWN,-80 00:17:df:a7:4c:f5,UNKNOWN,-86 00:1f:9e:8d:e3:35,UNKNOWN,-95 00:13:5f:55:d8:b0,UNKNOWN,-73 00:17:df:a8:60:66,UNKNOWN,-78 00:22:90:39:07:10,UNKNOWN,-79 00:17:df:a8:60:60,UNKNOWN,-80 00:22:90:39:07:16,UNKNOWN,-81 00:17:df:a8:60:61,UNKNOWN,-83 00:17:df:a7:4c:f0,UNKNOWN,-86 00:22:90:39:07:11,UNKNOWN,-86 00:17:df:a7:4c:f6,UNKNOWN,-87 00:22:90:39:b5:b1,UNKNOWN,-92 00:23:04:89:c3:d0,UNKNOWN,-94 08:ed:b9:5d:b2:0c,UNKNOWN,-95 
1354234642953100329;compass/AK8973 Magnetic Field;40.1875 10.9375 35.3125 3
1354234642953069329;accel/kr3dh;-0.13620348 -0.05448139 9.779409 3
1354234642953069329;linaccel/Linear Acceleration Sensor;8.966476E-4 9.102151E-4 -0.05233574 3
1354234642953008329;orientation/AK8973 Compass;284.21875 0.3125 -0.8125 1
1354234643047521329;accel/kr3dh;-0.06810174 -0.027240695 9.765789 3
1354234643047521329;compass/AK8973 Magnetic Field;39.9375 10.625 35.3125 3
1354234643047521329;linaccel/Linear Acceleration Sensor;0.05271581 0.02795454 -0.07081795 3
1354234643047490329;orientation/AK8973 Compass;284.26563 0.171875 -0.390625 1
1354234643141057329;accel/kr3dh;-0.19068487 -0.027240695 9.80665 3
1354234643141057329;compass/AK8973 Magnetic Field;39.6875 10.375 34.8125 3
1354234643141057329;linaccel/Linear Acceleration Sensor;-0.07803831 0.025649102 -0.020112991 3
1354234643141027329;orientation/AK8973 Compass;284.28125 0.171875 -1.125 1
1354234643232000000;rawNmea;$GPGSV,4,1,13,03,31,239,30,06,31,219,33,18,32,068,26,19,42,272,34*76
1354234643239000000;rawNmea;$GPGSV,4,2,13,21,17,129,25,01,03,312,,09,10,039,,11,18,310,*7E
1354234643243261329;compass/AK8973 Magnetic Field;40.1875 10.125 34.8125 3
1354234643243230329;accel/kr3dh;-0.21792556 -0.05448139 9.874752 3
1354234643243230329;linaccel/Linear Acceleration Sensor;-0.103447765 -0.008293103 0.06626129 3
1354234643243200329;orientation/AK8973 Compass;284.26563 0.3125 -1.265625 1
1354234643247000000;rawNmea;$GPGSV,4,3,13,14,79,149,,22,65,029,,24,13,046,,31,02,170,*73
1354234643251000000;rawNmea;$GPGSV,4,4,13,32,10,268,*47
1354234643256000000;rawNmea;$GPGGA,001722.0,3752.505090,N,12215.509018,W,1,05,5.5,127.9,M,-26.0,M,,*63
1354234643258000000;rawNmea;$GPVTG,307.6,T,307.6,M,0.0,N,0.0,K,A*23
1354234643260000000;rawNmea;$GPRMC,001722.0,A,3752.505090,N,12215.509018,W,0.0,307.6,301112,,,A*72
1354234643263000000;rawNmea;$GPGSA,A,3,03,06,18,19,22,,,,,,,,23.5,5.5,22.9*3B
1354234642000000000;latLngE7Gps;378750848 -1222584836 24.0 -1.0 0.0
1354234643337835329;accel/kr3dh;-0.16344418 -0.027240695 9.901993 3
1354234643337835329;compass/AK8973 Magnetic Field;39.6875 9.625 34.3125 3
1354234643337835329;linaccel/Linear Acceleration Sensor;-0.034474045 0.0122305695 0.10087776 3
1354234643337804329;orientation/AK8973 Compass;284.21875 0.171875 -0.953125 1
1354234643431310329;orientation/AK8973 Compass;284.1875 0.390625 -0.953125 1
1354234643431310329;accel/kr3dh;-0.16344418 -0.06810174 9.929234 3
1354234643431310329;linaccel/Linear Acceleration Sensor;-0.010414407 -0.032044675 0.11496544 3
1354234643529546329;compass/AK8973 Magnetic Field;39.9375 9.875 34.5625 3
1354234643529516329;accel/kr3dh;-0.095342435 -0.12258313 9.861132 3
1354234643529516329;linaccel/Linear Acceleration Sensor;0.07832401 -0.08379914 0.014421463 3
1354234643529454329;orientation/AK8973 Compass;284.20313 0.703125 -0.5625 1
1354234643627050329;compass/AK8973 Magnetic Field;39.6875 9.875 34.8125 3
1354234643627019329;accel/kr3dh;-0.14982383 -0.027240695 9.833891 3
1354234643627019329;linaccel/Linear Acceleration Sensor;0.02636829 0.021843271 -0.045458794 3
1354234643626989329;orientation/AK8973 Compass;284.1875 0.171875 -0.875 1
1354234643724950329;compass/AK8973 Magnetic Field;40.6875 9.875 35.5625 3
1354234643724920329;accel/kr3dh;-0.17706452 -0.05448139 9.79303 3
1354234643724920329;linaccel/Linear Acceleration Sensor;-0.014763296 0.008305956 -0.09970856 3
1354234643724889329;orientation/AK8973 Compass;284.15625 0.3125 -1.03125 1
1354234643827123329;compass/AK8973 Magnetic Field;40.6875 10.125 35.8125 3
1354234643827092329;accel/kr3dh;-0.14982383 -0.027240695 9.80665 3
1354234643827092329;linaccel/Linear Acceleration Sensor;-0.0031018108 0.04236242 -0.071331024 3
1354234643827062329;orientation/AK8973 Compass;284.14063 0.171875 -0.875 1
1354234643924840329;compass/AK8973 Magnetic Field;40.4375 10.125 35.8125 3
1354234643924810329;accel/kr3dh;-0.13620348 -0.0 9.738548 3
1354234643924810329;linaccel/Linear Acceleration Sensor;0.0061986446 0.06360382 -0.108098984 3
1354234643924779329;orientation/AK8973 Compass;284.125 0.0 -0.8125 1
1354234644021001329;orientation/AK8973 Compass;284.125 0.171875 -0.8125 1
1354234644021001329;accel/kr3dh;-0.13620348 -0.027240695 9.711308 3
1354234644021001329;compass/AK8973 Magnetic Field;40.1875 10.125 36.0625 3
1354234644021001329;linaccel/Linear Acceleration Sensor;0.009574994 0.021111948 -0.09989166 3
1354234644120641329;compass/AK8973 Magnetic Field;39.6875 10.375 36.0625 3
1354234644120611329;accel/kr3dh;-0.13620348 0.040861044 9.80665 3
1354234644120611329;linaccel/Linear Acceleration Sensor;0.011843413 0.07039339 0.02878952 3
1354234644120549329;orientation/AK8973 Compass;284.14063 -0.25 -0.78125 1
1354234644223729329;compass/AK8973 Magnetic Field;40.1875 10.125 35.8125 3
1354234644223668329;accel/kr3dh;-0.17706452 0.013620348 9.697687 3
1354234644223668329;linaccel/Linear Acceleration Sensor;-0.03116621 0.02512512 -0.05555439 3
1354234644223638329;orientation/AK8973 Compass;284.125 -0.078125 -1.03125 1
1354234644233000000;rawNmea;$GPGSV,4,1,13,03,31,239,29,06,31,219,34,14,79,149,19,18,32,068,19*74
1354234644234000000;rawNmea;$GPGSV,4,2,13,19,42,272,36,21,17,129,25,01,03,312,,09,10,039,*79
1354234644238000000;rawNmea;$GPGSV,4,3,13,11,18,310,,22,65,029,,24,13,046,,31,02,170,*7F
1354234644240000000;rawNmea;$GPGSV,4,4,13,32,10,268,*47
1354234644244000000;rawNmea;$GPGGA,001723.0,3752.505200,N,12215.509023,W,1,05,2.1,128.1,M,-26.0,M,,*65
1354234644247000000;rawNmea;$GPVTG,307.6,T,307.6,M,0.0,N,0.0,K,A*23
1354234644251000000;rawNmea;$GPRMC,001723.0,A,3752.505200,N,12215.509023,W,0.0,307.6,301112,,,A*70
1354234644253000000;rawNmea;$GPGSA,A,3,03,06,14,18,19,,,,,,,,3.3,2.1,2.6*34
1354234643000000000;latLngE7Gps;378750866 -1222584837 25.0 -1.0 0.0
1354234644319768329;accel/kr3dh;-0.12258313 -0.0 9.833891 3
1354234644319768329;compass/AK8973 Magnetic Field;40.4375 9.625 35.8125 3
1354234644319768329;linaccel/Linear Acceleration Sensor;0.021258064 -0.0030749058 0.09088516 3
1354234644319738329;orientation/AK8973 Compass;284.0625 0.0 -0.734375 1
1354234644415258329;compass/AK8973 Magnetic Field;40.4375 9.625 35.5625 3
1354234644415227329;accel/kr3dh;-0.13620348 0.027240695 9.833891 3
1354234644415227329;linaccel/Linear Acceleration Sensor;0.007910058 0.013899514 0.087062836 3
1354234644415166329;orientation/AK8973 Compass;284.0 -0.171875 -0.78125 1
1354234644456792972;wifi;00:17:df:a8:60:62,UNKNOWN,-77 00:23:04:89:cd:b2,UNKNOWN,-81 00:22:90:39:07:12,UNKNOWN,-83 28:cf:da:b8:1e:d5,UNKNOWN,-84 00:17:df:a7:33:12,UNKNOWN,-84 00:22:90:39:65:b2,UNKNOWN,-85 b8:c7:5d:08:bd:fd,UNKNOWN,-87 00:22:90:39:b5:b2,UNKNOWN,-89 00:23:04:89:cd:b5,UNKNOWN,-71 00:17:df:a8:60:65,UNKNOWN,-80 00:22:90:39:07:15,UNKNOWN,-83 00:17:df:a7:33:15,UNKNOWN,-92 00:23:04:89:cd:b1,UNKNOWN,-71 00:23:04:89:cd:b0,UNKNOWN,-72 00:23:04:89:cd:b6,UNKNOWN,-72 00:13:5f:55:d8:b0,UNKNOWN,-72 00:17:df:a8:60:66,UNKNOWN,-76 00:17:df:a8:60:60,UNKNOWN,-77 00:17:df:a8:60:61,UNKNOWN,-78 00:22:90:39:07:11,UNKNOWN,-83 00:22:90:39:07:16,UNKNOWN,-84 00:17:df:a7:33:11,UNKNOWN,-84 00:22:90:39:07:10,UNKNOWN,-87 00:17:df:a7:4c:f1,UNKNOWN,-87 00:22:90:39:b5:b0,UNKNOWN,-90 00:17:df:a7:33:16,UNKNOWN,-91 00:17:df:a7:33:10,UNKNOWN,-92 08:ed:b9:5d:b2:0c,UNKNOWN,-92 
1354234644509862329;accel/kr3dh;-0.19068487 -0.095342435 9.765789 3
1354234644509862329;compass/AK8973 Magnetic Field;40.4375 9.625 35.3125 3
1354234644509862329;linaccel/Linear Acceleration Sensor;-0.045610562 -0.11179079 0.0029878616 3
1354234644509832329;orientation/AK8973 Compass;283.96875 0.5625 -1.125 1
1354234644603612329;compass/AK8973 Magnetic Field;40.1875 10.125 35.0625 3
1354234644603582329;orientation/AK8973 Compass;283.96875 0.171875 -1.28125 1
1354234644603582329;accel/kr3dh;-0.21792556 -0.027240695 9.80665 3
1354234644603582329;linaccel/Linear Acceleration Sensor;-0.070307896 -0.036652938 0.022614479 3
1354234644699315329;accel/kr3dh;-0.16344418 -0.0 9.738548 3
1354234644699315329;compass/AK8973 Magnetic Field;40.4375 10.125 35.5625 3
1354234644699315329;linaccel/Linear Acceleration Sensor;-0.006903723 0.0075918995 -0.060631752 3
1354234644699285329;orientation/AK8973 Compass;283.95313 0.0 -0.953125 1
1354234644794378329;accel/kr3dh;-0.12258313 -0.027240695 9.779409 3
1354234644794378329;compass/AK8973 Magnetic Field;40.6875 10.125 35.0625 3
1354234644794378329;linaccel/Linear Acceleration Sensor;0.047485016 -0.0022940356 -0.021021843 3
1354234644794347329;orientation/AK8973 Compass;283.95313 0.171875 -0.734375 1
1354234644893041329;compass/AK8973 Magnetic Field;40.9375 10.125 35.0625 3
1354234644893010329;accel/kr3dh;-0.14982383 -0.040861044 9.861132 3
1354234644893010329;linaccel/Linear Acceleration Sensor;0.027870014 -0.0078113824 0.070067406 3
1354234644892980329;orientation/AK8973 Compass;283.95313 0.21875 -0.875 1
1354234644988500329;accel/kr3dh;-0.10896278 -0.013620348 9.874752 3
1354234644988500329;compass/AK8973 Magnetic Field;40.9375 9.875 35.5625 3
1354234644988500329;linaccel/Linear Acceleration Sensor;0.062614135 0.018669486 0.08872604 3
1354234644988469329;orientation/AK8973 Compass;283.92188 0.078125 -0.640625 1
1354234645083410329;compass/AK8973 Magnetic Field;40.9375 10.125 35.3125 3
1354234645083349329;accel/kr3dh;-0.12258313 -0.10896278 9.847511 3
1354234645083349329;linaccel/Linear Acceleration Sensor;0.03274598 -0.0789264 0.050567627 3
1354234645083318329;orientation/AK8973 Compass;283.9375 0.640625 -0.703125 1
1354234645178502329;accel/kr3dh;-0.24516626 0.05448139 9.80665 3
1354234645178502329;compass/AK8973 Magnetic Field;41.1875 10.125 35.8125 3
1354234645178502329;linaccel/Linear Acceleration Sensor;-0.10611968 0.08609621 -0.014137268 3
1354234645178472329;orientation/AK8973 Compass;283.89063 -0.3125 -1.421875 1
1354234645233000000;rawNmea;$GPGSV,4,1,13,03,31,239,29,06,31,219,34,11,18,310,20,14,79,149,19*73
1354234645237000000;rawNmea;$GPGSV,4,2,13,18,32,068,19,19,42,272,36,21,17,129,25,01,03,312,*75
1354234645239000000;rawNmea;$GPGSV,4,3,13,09,10,039,,22,65,029,,24,13,046,,31,02,170,*76
1354234645241000000;rawNmea;$GPGSV,4,4,13,32,10,268,*47
1354234645249000000;rawNmea;$GPGGA,001724.0,3752.505362,N,12215.509029,W,1,06,1.4,128.2,M,-26.0,M,,*6B
1354234645255000000;rawNmea;$GPVTG,307.6,T,307.6,M,0.0,N,0.0,K,A*23
1354234645297125002;wifi;00:23:04:89:cd:b2,UNKNOWN,-71 00:17:df:a8:60:62,UNKNOWN,-78 00:22:90:39:07:12,UNKNOWN,-84 00:17:df:a7:33:12,UNKNOWN,-84 00:17:df:a8:60:65,UNKNOWN,-78 00:22:90:39:65:b5,UNKNOWN,-84 00:22:90:39:07:15,UNKNOWN,-85 00:17:df:a7:4c:f5,UNKNOWN,-88 00:17:df:a7:33:15,UNKNOWN,-84 00:23:04:89:cd:b1,UNKNOWN,-71 00:13:5f:55:d8:b0,UNKNOWN,-72 00:17:df:a8:60:61,UNKNOWN,-75 00:17:df:a8:60:66,UNKNOWN,-77 00:23:04:89:cd:b0,UNKNOWN,-77 00:23:04:89:cd:b6,UNKNOWN,-77 00:17:df:a8:60:60,UNKNOWN,-77 00:17:df:a7:33:16,UNKNOWN,-83 00:17:df:a7:33:11,UNKNOWN,-84 00:17:df:a7:33:10,UNKNOWN,-84 00:22:90:39:07:16,UNKNOWN,-88 00:17:df:a7:4c:f1,UNKNOWN,-91 08:ed:b9:5d:b2:0c,UNKNOWN,-91 00:22:90:39:07:10,UNKNOWN,-92 00:23:04:89:c3:d6,UNKNOWN,-95 
1354234645275396329;compass/AK8973 Magnetic Field;40.9375 10.125 36.0625 3
1354234645275365329;accel/kr3dh;-0.24516626 0.027240695 9.874752 3
1354234645275365329;linaccel/Linear Acceleration Sensor;-0.109148085 0.06089689 0.032169342 3
1354234645275304329;orientation/AK8973 Compass;283.85938 -0.171875 -1.421875 1
1354234645261000000;rawNmea;$GPRMC,001724.0,A,3752.505362,N,12215.509029,W,0.0,307.6,301112,,,A*78
1354234645306000000;rawNmea;$GPGSA,A,3,03,06,11,14,18,19,,,,,,,2.7,1.4,2.4*35
1354234644000000000;latLngE7Gps;378750893 -1222584838 24.0 -1.0 0.0
1354234645387914329;orientation/AK8973 Compass;283.85938 0.21875 -1.265625 1
1354234645387914329;accel/kr3dh;-0.21792556 -0.040861044 9.861132 3
1354234645387914329;linaccel/Linear Acceleration Sensor;-0.056232765 -0.016495818 0.008765221 3
1354234645481969329;compass/AK8973 Magnetic Field;40.6875 10.125 35.5625 3
1354234645481939329;orientation/AK8973 Compass;283.85938 0.0 -0.953125 1
1354234645481939329;accel/kr3dh;-0.16344418 -0.0 9.765789 3
1354234645481939329;linaccel/Linear Acceleration Sensor;0.031089678 0.00954934 -0.08748531 3
1354234645578527329;orientation/AK8973 Compass;283.875 0.171875 -0.734375 1
1354234645578527329;accel/kr3dh;-0.12258313 -0.027240695 9.833891 3
1354234645578527329;compass/AK8973 Magnetic Field;40.1875 10.125 35.3125 3
1354234645578527329;linaccel/Linear Acceleration Sensor;0.09565789 -0.028618801 -0.014028549 3
1354234645673559329;compass/AK8973 Magnetic Field;40.1875 9.875 35.3125 3
1354234645673528329;accel/kr3dh;-0.17706452 -0.05448139 9.929234 3
1354234645673528329;linaccel/Linear Acceleration Sensor;0.039759308 -0.055351388 0.09099388 3
1354234645673497329;orientation/AK8973 Compass;283.875 0.3125 -1.03125 1
1354234645769384329;compass/AK8973 Magnetic Field;40.1875 9.625 35.3125 3
1354234645769353329;orientation/AK8973 Compass;283.84375 0.0 -0.890625 1
1354234645769353329;accel/kr3dh;-0.14982383 -0.0 9.724928 3
1354234645769353329;linaccel/Linear Acceleration Sensor;0.044500425 0.009004474 -0.10652828 3
1354234645864599329;compass/AK8973 Magnetic Field;39.9375 9.125 35.8125 3
1354234645864568329;accel/kr3dh;-0.16344418 -0.027240695 9.833891 3
1354234645864568329;linaccel/Linear Acceleration Sensor;0.0054018497 -0.0064188857 0.003288269 3
1354234645864507329;orientation/AK8973 Compass;283.78125 0.171875 -0.953125 1
1354234645961858329;compass/AK8973 Magnetic Field;40.1875 9.375 36.0625 3
1354234645961828329;accel/kr3dh;-0.12258313 -0.027240695 9.929234 3
1354234645961828329;linaccel/Linear Acceleration Sensor;0.03019289 5.8582425E-4 0.09938431 3
1354234645961797329;orientation/AK8973 Compass;283.73438 0.171875 -0.703125 1
1354234646058446329;orientation/AK8973 Compass;283.6875 -0.171875 -0.953125 1
1354234646058446329;accel/kr3dh;-0.16344418 0.027240695 9.915613 3
1354234646058446329;compass/AK8973 Magnetic Field;39.9375 9.375 35.8125 3
1354234646058446329;linaccel/Linear Acceleration Sensor;-0.016751885 0.054997064 0.08367157 3
1354234646154485329;compass/AK8973 Magnetic Field;39.9375 9.625 35.5625 3
1354234646154454329;accel/kr3dh;-0.21792556 -0.027240695 9.724928 3
1354234646154454329;linaccel/Linear Acceleration Sensor;-0.071465224 -0.0049915556 -0.11978912 3
1354234646154393329;orientation/AK8973 Compass;283.67188 0.171875 -1.28125 1
1354234646290441651;wifi;00:23:04:89:cd:b2,UNKNOWN,-72 00:17:df:a8:60:62,UNKNOWN,-78 00:17:df:a7:33:12,UNKNOWN,-82 00:22:90:39:65:b2,UNKNOWN,-86 00:17:df:a7:4c:f2,UNKNOWN,-86 00:22:90:39:07:12,UNKNOWN,-87 b8:c7:5d:08:bd:fd,UNKNOWN,-87 28:cf:da:b8:1e:d5,UNKNOWN,-88 00:17:df:a8:60:65,UNKNOWN,-78 00:22:90:39:07:15,UNKNOWN,-87 00:22:90:39:65:b5,UNKNOWN,-90 00:17:df:a7:33:15,UNKNOWN,-90 00:23:04:89:cd:b1,UNKNOWN,-71 00:13:5f:55:d8:b0,UNKNOWN,-72 00:23:04:89:cd:b6,UNKNOWN,-76 00:17:df:a8:60:60,UNKNOWN,-78 00:17:df:a8:60:66,UNKNOWN,-78 00:23:04:89:cd:b0,UNKNOWN,-79 00:17:df:a8:60:61,UNKNOWN,-82 00:22:90:39:07:10,UNKNOWN,-82 00:17:df:a7:33:11,UNKNOWN,-82 00:22:90:39:07:11,UNKNOWN,-82 00:22:90:39:07:16,UNKNOWN,-83 00:22:90:39:b5:b1,UNKNOWN,-88 00:22:90:39:b5:b0,UNKNOWN,-89 00:17:df:a7:33:16,UNKNOWN,-89 00:22:90:39:65:b6,UNKNOWN,-89 00:17:df:a7:33:10,UNKNOWN,-91 
1354234646266698329;compass/AK8973 Magnetic Field;40.1875 10.125 35.3125 3
1354234646266668329;accel/kr3dh;-0.13620348 -0.040861044 9.861132 3
1354234646266668329;linaccel/Linear Acceleration Sensor;0.017601594 -0.027236484 0.0015258789 3
1354234646266607329;orientation/AK8973 Compass;283.70313 0.21875 -0.78125 1
1354234646233000000;rawNmea;$GPGSV,4,1,13,03,31,239,30,06,31,219,34,11,18,310,20,14,79,149,19*7B
1354234646271000000;rawNmea;$GPGSV,4,2,13,18,32,068,19,19,42,272,36,21,17,129,25,01,03,312,*75
1354234646273000000;rawNmea;$GPGSV,4,3,13,09,10,039,,22,65,029,,24,13,046,,31,02,170,*76
1354234646294000000;rawNmea;$GPGSV,4,4,13,32,10,268,*47
1354234646303000000;rawNmea;$GPGGA,001725.0,3752.505472,N,12215.509031,W,1,06,1.4,128.4,M,-26.0,M,,*63
1354234646306000000;rawNmea;$GPVTG,307.6,T,307.6,M,0.0,N,0.0,K,A*23
1354234646309000000;rawNmea;$GPRMC,001725.0,A,3752.505472,N,12215.509031,W,0.0,307.6,301112,,,A*76
1354234646311000000;rawNmea;$GPGSA,A,3,03,06,11,14,18,19,,,,,,,2.7,1.4,2.4*35
1354234645000000000;latLngE7Gps;378750912 -1222584838 24.0 -1.0 0.0
1354234646361699329;compass/AK8973 Magnetic Field;40.1875 9.875 35.0625 3
1354234646361669329;orientation/AK8973 Compass;283.71875 0.5625 -1.03125 1
1354234646361669329;accel/kr3dh;-0.17706452 -0.095342435 9.820271 3
1354234646361669329;linaccel/Linear Acceleration Sensor;-0.012908623 -0.08352984 -0.034863472 3
1354234646458318329;compass/AK8973 Magnetic Field;40.6875 9.625 35.0625 3
1354234646458288329;accel/kr3dh;-0.17706452 -0.10896278 9.779409 3
1354234646458288329;linaccel/Linear Acceleration Sensor;-0.0043383986 -0.08647376 -0.056832314 3
1354234646458257329;orientation/AK8973 Compass;283.71875 0.640625 -1.03125 1
1354234646560491329;compass/AK8973 Magnetic Field;40.6875 9.875 35.0625 3
1354234646560460329;accel/kr3dh;-0.20430522 -0.06810174 9.874752 3
1354234646560460329;linaccel/Linear Acceleration Sensor;-0.028145641 -0.021243975 0.056390762 3
1354234646560430329;orientation/AK8973 Compass;283.71875 0.390625 -1.171875 1
1354234646656072329;orientation/AK8973 Compass;283.6875 0.171875 -0.78125 1
1354234646656072329;accel/kr3dh;-0.13620348 -0.027240695 9.874752 3
1354234646656072329;compass/AK8973 Magnetic Field;40.6875 9.625 35.0625 3
1354234646656072329;linaccel/Linear Acceleration Sensor;0.04131019 0.043932304 0.06243801 3
1354234646749334329;compass/AK8973 Magnetic Field;40.6875 9.625 35.3125 3
1354234646749303329;accel/kr3dh;-0.14982383 -0.05448139 9.820271 3
1354234646749303329;linaccel/Linear Acceleration Sensor;0.027871981 0.028971028 9.737015E-4 3
1354234646749273329;orientation/AK8973 Compass;283.67188 0.3125 -0.875 1
1354234646845678329;compass/AK8973 Magnetic Field;40.4375 10.125 35.5625 3
1354234646845647329;orientation/AK8973 Compass;283.6875 0.078125 -1.125 1
1354234646845647329;accel/kr3dh;-0.19068487 -0.013620348 9.765789 3
1354234646845647329;linaccel/Linear Acceleration Sensor;-0.016610086 0.06469055 -0.06739044 3
1354234646939946329;accel/kr3dh;-0.14982383 0.05448139 9.779409 3
1354234646939946329;compass/AK8973 Magnetic Field;40.1875 9.875 35.8125 3
1354234646939946329;linaccel/Linear Acceleration Sensor;0.018093765 0.11528336 -0.059150696 3
1354234646939916329;orientation/AK8973 Compass;283.67188 -0.3125 -0.875 1
1354234647034124329;accel/kr3dh;-0.14982383 -0.027240695 9.833891 3
1354234647034124329;compass/AK8973 Magnetic Field;39.9375 10.125 36.0625 3
1354234647034124329;linaccel/Linear Acceleration Sensor;0.013373852 0.009596689 0.0056610107 3
1354234647034093329;orientation/AK8973 Compass;283.70313 0.171875 -0.875 1
1354234647143346926;wifi;00:23:04:89:cd:b2,UNKNOWN,-71 00:22:90:39:07:12,UNKNOWN,-81 00:17:df:a8:60:62,UNKNOWN,-81 00:17:df:a7:33:12,UNKNOWN,-83 00:17:df:a7:4c:f2,UNKNOWN,-85 00:22:90:39:65:b2,UNKNOWN,-86 28:cf:da:b8:1e:d5,UNKNOWN,-89 00:23:04:89:cd:b5,UNKNOWN,-76 00:17:df:a8:60:65,UNKNOWN,-78 00:22:90:39:07:15,UNKNOWN,-82 00:17:df:a7:33:15,UNKNOWN,-82 00:23:04:89:cd:b0,UNKNOWN,-72 00:13:5f:55:d8:b0,UNKNOWN,-72 00:23:04:89:cd:b1,UNKNOWN,-73 00:17:df:a8:60:60,UNKNOWN,-77 00:17:df:a8:60:66,UNKNOWN,-77 00:23:04:89:cd:b6,UNKNOWN,-79 00:17:df:a8:60:61,UNKNOWN,-80 00:22:90:39:07:16,UNKNOWN,-81 00:17:df:a7:33:11,UNKNOWN,-82 00:17:df:a7:33:10,UNKNOWN,-82 00:22:90:39:07:10,UNKNOWN,-86 00:17:df:a7:4c:f6,UNKNOWN,-87 00:17:df:a7:33:16,UNKNOWN,-83 00:17:df:a7:4c:f0,UNKNOWN,-92 00:22:90:39:b5:b1,UNKNOWN,-93 
1354234647130224329;compass/AK8973 Magnetic Field;39.9375 9.875 36.0625 3
1354234647130193329;accel/kr3dh;-0.16344418 -0.040861044 9.765789 3
1354234647130193329;linaccel/Linear Acceleration Sensor;-0.0027427226 -0.027841069 -0.043894768 3
1354234647130132329;orientation/AK8973 Compass;283.71875 0.25 -0.953125 1
1354234647232000000;rawNmea;$GPGSV,4,1,13,03,31,239,29,06,31,219,34,11,18,310,20,14,79,149,19*73
1354234647236000000;rawNmea;$GPGSV,4,2,13,18,32,068,21,19,42,272,35,21,17,129,25,01,03,312,*7D
1354234647240697329;compass/AK8973 Magnetic Field;39.9375 9.625 36.375 3
1354234647240667329;accel/kr3dh;-0.17706452 0.040861044 9.765789 3
1354234647240667329;linaccel/Linear Acceleration Sensor;-0.017901495 0.03953317 -0.027623177 3
1354234647240606329;orientation/AK8973 Compass;283.6875 -0.25 -1.03125 1
1354234647248000000;rawNmea;$GPGSV,4,3,13,09,10,039,,22,65,029,,24,13,046,,31,02,170,*76
1354234647252000000;rawNmea;$GPGSV,4,4,13,32,10,268,*47
1354234647257000000;rawNmea;$GPGGA,001726.0,3752.505596,N,12215.509035,W,1,06,1.4,128.5,M,-26.0,M,,*6E
1354234647260000000;rawNmea;$GPVTG,307.6,T,307.6,M,0.0,N,0.0,K,A*23
1354234647262000000;rawNmea;$GPRMC,001726.0,A,3752.505596,N,12215.509035,W,0.0,307.6,301112,,,A*7A
1354234647264000000;rawNmea;$GPGSA,A,3,03,06,11,14,18,19,,,,,,,2.7,1.4,2.4*35
1354234646000000000;latLngE7Gps;378750932 -1222584839 22.0 -1.0 0.0
1354234647338384329;accel/kr3dh;-0.17706452 0.013620348 9.888372 3
1354234647338384329;compass/AK8973 Magnetic Field;39.9375 9.375 36.375 3
1354234647338384329;linaccel/Linear Acceleration Sensor;-0.017248541 0.010761848 0.10190201 3
1354234647338353329;orientation/AK8973 Compass;283.64063 -0.078125 -1.03125 1
1354234647434789329;compass/AK8973 Magnetic Field;39.4375 9.375 36.0625 3
1354234647434758329;accel/kr3dh;-0.19068487 -0.05448139 9.738548 3
1354234647434758329;linaccel/Linear Acceleration Sensor;-0.026691929 -0.05542072 -0.049199104 3
1354234647434697329;orientation/AK8973 Compass;283.625 0.3125 -1.125 1
1354234647531774329;compass/AK8973 Magnetic Field;39.4375 9.875 36.0625 3
1354234647531743329;accel/kr3dh;-0.17706452 0.013620348 9.80665 3
1354234647531743329;linaccel/Linear Acceleration Sensor;-0.0060986876 0.013911966 0.011705399 3
1354234647531713329;orientation/AK8973 Compass;283.64063 -0.078125 -1.03125 1
1354234647631383329;compass/AK8973 Magnetic Field;38.9375 9.875 36.0625 3
1354234647631353329;accel/kr3dh;-0.095342435 -0.06810174 9.738548 3
1354234647631353329;linaccel/Linear Acceleration Sensor;0.081381835 -0.06370171 -0.061130524 3
1354234647631322329;orientation/AK8973 Compass;283.6875 0.390625 -0.5625 1
1354234647729955329;accel/kr3dh;-0.14982383 -0.0 9.779409 3
1354234647729955329;compass/AK8973 Magnetic Field;39.1875 10.125 35.8125 3
1354234647729955329;linaccel/Linear Acceleration Sensor;0.024397865 0.0126403505 -0.01529789 3
1354234647729924329;orientation/AK8973 Compass;283.73438 0.0 -0.875 1
1354234647825048329;compass/AK8973 Magnetic Field;39.6875 9.875 35.8125 3
1354234647824987329;accel/kr3dh;-0.08172209 -0.027240695 9.711308 3
1354234647824987329;linaccel/Linear Acceleration Sensor;0.07939737 -0.0058068037 -0.070962906 3
1354234647824956329;orientation/AK8973 Compass;283.75 0.171875 -0.484375 1
1354234647921758329;orientation/AK8973 Compass;283.73438 0.171875 -1.171875 1
1354234647921758329;accel/kr3dh;-0.20430522 -0.027240695 9.874752 3
1354234647921758329;compass/AK8973 Magnetic Field;39.6875 9.625 35.5625 3
1354234647921758329;linaccel/Linear Acceleration Sensor;-0.06197892 -2.7493387E-4 0.10629654 3
1354234648020086329;orientation/AK8973 Compass;283.71875 0.171875 -0.78125 1
1354234648020086329;accel/kr3dh;-0.13620348 -0.027240695 9.79303 3
1354234648020086329;compass/AK8973 Magnetic Field;39.9375 9.625 35.0625 3
1354234648020086329;linaccel/Linear Acceleration Sensor;-0.0067332536 6.5878965E-4 0.029642105 3
1354234648104925294;wifi;00:17:df:a8:60:62,UNKNOWN,-78 00:23:04:89:cd:b2,UNKNOWN,-79 00:22:90:39:65:b2,UNKNOWN,-85 b8:c7:5d:08:bd:fd,UNKNOWN,-87 00:23:04:89:cd:b5,UNKNOWN,-72 00:17:df:a8:60:65,UNKNOWN,-75 00:22:90:39:07:15,UNKNOWN,-84 00:17:df:a7:4c:f5,UNKNOWN,-87 00:22:90:39:65:b5,UNKNOWN,-88 00:13:5f:55:d8:b0,UNKNOWN,-71 00:23:04:89:cd:b1,UNKNOWN,-72 00:23:04:89:cd:b0,UNKNOWN,-72 00:23:04:89:cd:b6,UNKNOWN,-73 00:17:df:a8:60:60,UNKNOWN,-78 00:17:df:a8:60:66,UNKNOWN,-79 00:17:df:a8:60:61,UNKNOWN,-81 00:22:90:39:07:11,UNKNOWN,-84 00:22:90:39:65:b1,UNKNOWN,-86 00:22:90:39:07:10,UNKNOWN,-86 00:17:df:a7:4c:f6,UNKNOWN,-86 00:22:90:39:07:16,UNKNOWN,-86 00:17:df:a7:4c:f1,UNKNOWN,-87 00:22:90:39:65:b0,UNKNOWN,-87 00:22:90:39:b5:b1,UNKNOWN,-88 00:22:90:39:b5:b0,UNKNOWN,-88 00:22:90:39:65:b6,UNKNOWN,-89 
1354234648114385329;orientation/AK8973 Compass;283.67188 0.0 -0.78125 1
1354234648114385329;accel/kr3dh;-0.13620348 -0.0 9.901993 3
1354234648114385329;compass/AK8973 Magnetic Field;39.9375 9.375 35.3125 3
1354234648114385329;linaccel/Linear Acceleration Sensor;-0.0067227185 0.02648468 0.12789917 3
1354234648207830329;compass/AK8973 Magnetic Field;40.4375 9.875 35.3125 3
1354234648207799329;orientation/AK8973 Compass;283.67188 0.0 -0.734375 1
1354234648207799329;accel/kr3dh;-0.12258313 -0.0 9.80665 3
1354234648207799329;linaccel/Linear Acceleration Sensor;0.014730744 0.02364152 0.008449554 3
1354234648234000000;rawNmea;$GPGSV,4,1,13,03,31,239,30,06,31,219,34,11,18,310,20,14,79,149,19*7B
1354234648238000000;rawNmea;$GPGSV,4,2,13,18,32,068,21,19,42,272,35,21,17,129,25,01,03,312,*7D
1354234648240000000;rawNmea;$GPGSV,4,3,13,09,10,039,,22,65,029,,24,13,046,,31,02,170,*76
1354234648242000000;rawNmea;$GPGSV,4,4,13,32,10,268,*47
1354234648253000000;rawNmea;$GPGGA,001727.0,3752.505704,N,12215.509036,W,1,06,1.4,128.7,M,-26.0,M,,*67
1354234648258000000;rawNmea;$GPVTG,307.6,T,307.6,M,0.0,N,0.0,K,A*23
1354234648262000000;rawNmea;$GPRMC,001727.0,A,3752.505704,N,12215.509036,W,0.0,307.6,301112,,,A*71
1354234648268000000;rawNmea;$GPGSA,A,3,03,06,11,14,18,19,,,,,,,2.7,1.4,2.4*35
1354234648301366329;compass/AK8973 Magnetic Field;40.4375 10.125 35.5625 3
1354234648301336329;orientation/AK8973 Compass;283.67188 -0.25 -0.78125 1
1354234648301336329;accel/kr3dh;-0.13620348 0.040861044 9.820271 3
1354234648301336329;linaccel/Linear Acceleration Sensor;0.006783262 0.05874422 -0.0044498444 3
1354234647000000000;latLngE7Gps;378750950 -1222584839 23.0 -1.0 0.0
1354234648394994329;compass/AK8973 Magnetic Field;40.4375 10.375 35.8125 3
1354234648394964329;accel/kr3dh;-0.08172209 0.05448139 9.79303 3
1354234648394964329;linaccel/Linear Acceleration Sensor;0.0596708 0.061751828 -0.047689438 3
1354234648394933329;orientation/AK8973 Compass;283.6875 -0.3125 -0.484375 1
1354234648497381329;orientation/AK8973 Compass;283.73438 0.25 -1.03125 1
1354234648497381329;accel/kr3dh;-0.17706452 -0.040861044 9.80665 3
1354234648497381329;compass/AK8973 Magnetic Field;40.4375 10.375 35.3125 3
1354234648497381329;linaccel/Linear Acceleration Sensor;-0.04404001 -0.049705025 -0.032151222 3
1354234648591192329;compass/AK8973 Magnetic Field;40.1875 10.375 35.0625 3
1354234648591161329;accel/kr3dh;-0.17706452 -0.05448139 9.697687 3
1354234648591161329;linaccel/Linear Acceleration Sensor;-0.050556928 -0.074166745 -0.12701988 3
1354234648591131329;orientation/AK8973 Compass;283.78125 0.328125 -1.03125 1
1354234648686956329;orientation/AK8973 Compass;283.79688 0.0 -1.28125 1
1354234648686956329;accel/kr3dh;-0.21792556 -0.0 9.724928 3
1354234648686956329;compass/AK8973 Magnetic Field;40.4375 10.375 34.3125 3
1354234648686956329;linaccel/Linear Acceleration Sensor;-0.08789456 -0.016394598 -0.07670879 3
1354234648781133329;compass/AK8973 Magnetic Field;40.1875 10.125 33.8125 3
1354234648781102329;accel/kr3dh;-0.14982383 -0.027240695 9.80665 3
1354234648781102329;linaccel/Linear Acceleration Sensor;-0.0037052184 -0.027761243 0.032164574 3
1354234648781041329;orientation/AK8973 Compass;283.8125 0.171875 -0.875 1
1354234648885961329;compass/AK8973 Magnetic Field;39.9375 10.125 33.8125 3
1354234648885930329;accel/kr3dh;-0.21792556 -0.05448139 9.765789 3
1354234648885930329;linaccel/Linear Acceleration Sensor;-0.04779783 -0.035519317 0.014552116 3
1354234648885900329;orientation/AK8973 Compass;283.84375 0.3125 -1.28125 1
1354234648982641358;wifi;00:23:04:89:cd:b2,UNKNOWN,-71 00:17:df:a8:60:62,UNKNOWN,-77 00:17:df:a7:33:12,UNKNOWN,-82 00:22:90:39:07:12,UNKNOWN,-83 28:cf:da:b8:1e:d5,UNKNOWN,-89 00:17:df:a8:60:65,UNKNOWN,-77 00:23:04:89:cd:b5,UNKNOWN,-79 00:22:90:39:07:15,UNKNOWN,-83 00:17:df:a7:33:15,UNKNOWN,-85 00:22:90:39:b5:b5,UNKNOWN,-92 00:23:04:89:cd:b1,UNKNOWN,-70 00:17:df:a8:60:60,UNKNOWN,-76 00:17:df:a8:60:61,UNKNOWN,-76 00:23:04:89:cd:b6,UNKNOWN,-78 00:23:04:89:cd:b0,UNKNOWN,-78 00:17:df:a8:60:66,UNKNOWN,-78 00:22:90:39:07:11,UNKNOWN,-82 00:17:df:a7:33:10,UNKNOWN,-83 00:17:df:a7:33:11,UNKNOWN,-83 00:17:df:a7:33:16,UNKNOWN,-84 00:22:90:39:07:10,UNKNOWN,-86 00:22:90:39:b5:b1,UNKNOWN,-92 00:1f:9e:8d:e3:36,UNKNOWN,-94 
1354234648980657329;orientation/AK8973 Compass;283.875 0.3125 -0.890625 1
1354234648980657329;accel/kr3dh;-0.14982383 -0.05448139 9.738548 3
1354234648980657329;compass/AK8973 Magnetic Field;39.6875 10.125 34.3125 3
1354234648980657329;linaccel/Linear Acceleration Sensor;0.036127403 -0.023686593 -0.0068674088 3
1354234649074743329;compass/AK8973 Magnetic Field;39.4375 9.625 35.0625 3
1354234649074682329;accel/kr3dh;-0.13620348 -0.095342435 9.684067 3
1354234649074682329;linaccel/Linear Acceleration Sensor;0.05430211 -0.056528423 -0.066740036 3
1354234649074651329;orientation/AK8973 Compass;283.89063 0.5625 -0.8125 1
1354234649172063329;accel/kr3dh;-0.21792556 -0.027240695 9.861132 3
1354234649172063329;compass/AK8973 Magnetic Field;40.1875 9.625 35.5625 3
1354234649172063329;linaccel/Linear Acceleration Sensor;-0.033276007 0.020906856 0.1069603 3
1354234649172033329;orientation/AK8973 Compass;283.85938 0.171875 -1.265625 1
1354234649232000000;rawNmea;$GPGSV,4,1,13,03,31,239,30,06,31,219,34,11,18,310,20,14,79,149,19*7B
1354234649239000000;rawNmea;$GPGSV,4,2,13,18,32,068,21,19,42,272,35,21,17,129,25,01,03,312,*7D
1354234649244000000;rawNmea;$GPGSV,4,3,13,09,10,039,,22,65,029,,24,13,046,,31,02,170,*76
1354234649252000000;rawNmea;$GPGSV,4,4,13,32,10,268,*47
1354234649265000000;rawNmea;$GPGGA,001728.0,3752.505806,N,12215.509035,W,1,06,1.4,128.8,M,-26.0,M,,*69
1354234649271001329;compass/AK8973 Magnetic Field;40.6875 10.125 36.0625 3
1354234649270971329;accel/kr3dh;-0.14982383 -0.0 9.820271 3
1354234649270971329;linaccel/Linear Acceleration Sensor;0.024989739 0.056581896 0.065322876 3
1354234649270940329;orientation/AK8973 Compass;283.85938 0.0 -0.875 1
1354234649280000000;rawNmea;$GPVTG,307.6,T,307.6,M,0.0,N,0.0,K,A*23
1354234649281000000;rawNmea;$GPRMC,001728.0,A,3752.505806,N,12215.509035,W,0.0,307.6,301112,,,A*70
1354234649283000000;rawNmea;$GPGSA,A,3,03,06,11,14,18,19,,,,,,,2.7,1.4,2.4*35
1354234648000000000;latLngE7Gps;378750967 -1222584839 23.0 -1.0 0.0
1354234649371007329;compass/AK8973 Magnetic Field;41.1875 9.625 35.5625 3
1354234649370977329;accel/kr3dh;-0.19068487 -0.040861044 9.643207 3
1354234649370977329;linaccel/Linear Acceleration Sensor;-0.021261975 0.015188474 -0.11982441 3
1354234649370946329;orientation/AK8973 Compass;283.8125 0.25 -1.125 1
1354234649470128329;compass/AK8973 Magnetic Field;41.1875 10.125 35.5625 3
1354234649470098329;accel/kr3dh;-0.24516626 -0.027240695 9.738548 3
1354234649470098329;linaccel/Linear Acceleration Sensor;-0.073622644 0.017823605 -0.03326702 3
1354234649470067329;orientation/AK8973 Compass;283.79688 0.171875 -1.453125 1
1354234649574834329;compass/AK8973 Magnetic Field;40.4375 10.125 35.5625 3
1354234649574804329;accel/kr3dh;-0.19068487 -0.095342435 9.80665 3
1354234649574804329;linaccel/Linear Acceleration Sensor;-0.008958861 -0.062636524 0.041362762 3
1354234649574773329;orientation/AK8973 Compass;283.82813 0.5625 -1.125 1
1354234649670690329;compass/AK8973 Magnetic Field;39.9375 9.625 35.3125 3
1354234649670659329;orientation/AK8973 Compass;283.8125 0.25 -1.125 1
1354234649670659329;accel/kr3dh;-0.19068487 -0.040861044 9.80665 3
1354234649670659329;linaccel/Linear Acceleration Sensor;0.004384637 -0.009875268 0.054437637 3
1354234649767370329;compass/AK8973 Magnetic Field;39.4375 9.875 35.5625 3
1354234649767308329;accel/kr3dh;-0.19068487 -0.12258313 9.724928 3
1354234649767308329;linaccel/Linear Acceleration Sensor;0.014701232 -0.08149078 -0.02446556 3
1354234649767278329;orientation/AK8973 Compass;283.84375 0.734375 -1.125 1
1354234649865392329;compass/AK8973 Magnetic Field;38.9375 9.875 35.5625 3
1354234649865361329;accel/kr3dh;-0.16344418 0.095342435 9.833891 3
1354234649865361329;linaccel/Linear Acceleration Sensor;0.043002903 0.15052132 0.0738678 3
1354234649865300329;orientation/AK8973 Compass;283.82813 -0.5625 -0.953125 1
1354234649985662598;wifi;00:23:04:89:cd:b2,UNKNOWN,-72 00:22:90:39:07:12,UNKNOWN,-79 00:17:df:a8:60:62,UNKNOWN,-80 28:cf:da:b8:1e:d5,UNKNOWN,-81 00:17:df:a7:33:12,UNKNOWN,-84 00:17:df:a7:4c:f2,UNKNOWN,-85 00:22:90:39:65:b2,UNKNOWN,-86 00:22:90:39:b5:b2,UNKNOWN,-92 00:23:04:89:c3:d2,UNKNOWN,-94 00:23:04:89:cd:b5,UNKNOWN,-72 00:17:df:a8:60:65,UNKNOWN,-77 00:17:df:a7:33:15,UNKNOWN,-81 00:22:90:39:07:15,UNKNOWN,-86 00:22:90:39:b5:b5,UNKNOWN,-88 00:1f:9e:8d:e3:35,UNKNOWN,-94 00:13:5f:55:d8:b0,UNKNOWN,-74 00:23:04:89:cd:b6,UNKNOWN,-74 00:17:df:a8:60:66,UNKNOWN,-76 00:17:df:a8:60:60,UNKNOWN,-77 00:22:90:39:07:10,UNKNOWN,-78 00:23:04:89:cd:b1,UNKNOWN,-79 00:22:90:39:07:11,UNKNOWN,-80 00:17:df:a8:60:61,UNKNOWN,-82 00:17:df:a7:33:11,UNKNOWN,-82 00:17:df:a7:33:10,UNKNOWN,-83 00:17:df:a7:33:16,UNKNOWN,-83 00:22:90:39:07:16,UNKNOWN,-89 00:22:90:39:65:b6,UNKNOWN,-90 
1354234649974706329;compass/AK8973 Magnetic Field;39.1875 10.125 35.5625 3
1354234649974675329;accel/kr3dh;-0.13620348 -0.040861044 9.833891 3
1354234649974675329;linaccel/Linear Acceleration Sensor;0.05977705 0.016619992 0.05689907 3
1354234649974584329;orientation/AK8973 Compass;283.875 0.25 -0.78125 1
1354234650075811329;compass/AK8973 Magnetic Field;39.4375 10.375 35.5625 3
1354234650075780329;orientation/AK8973 Compass;283.9375 0.390625 -0.875 1
1354234650075780329;accel/kr3dh;-0.14982383 -0.06810174 9.901993 3
1354234650075780329;linaccel/Linear Acceleration Sensor;0.030240998 -0.026637327 0.107357025 3
1354234650169866329;orientation/AK8973 Compass;283.98438 0.0 -1.203125 1
1354234650169866329;accel/kr3dh;-0.20430522 -0.0 9.80665 3
1354234650169866329;compass/AK8973 Magnetic Field;39.1875 10.375 35.3125 3
1354234650169866329;linaccel/Linear Acceleration Sensor;-0.039897993 0.022683624 -0.009134293 3
1354234650234000000;rawNmea;$GPGSV,4,1,13,03,31,239,30,06,31,219,33,11,18,310,20,14,79,149,19*7C
1354234650238000000;rawNmea;$GPGSV,4,2,13,18,32,068,20,19,42,272,34,21,17,129,25,01,03,312,*7D
1354234650240000000;rawNmea;$GPGSV,4,3,13,09,10,039,,22,65,029,,24,13,046,,31,02,170,*76
1354234650241000000;rawNmea;$GPGSV,4,4,13,32,10,268,*47
1354234650256000000;rawNmea;$GPGGA,001729.0,3752.505874,N,12215.509042,W,1,06,1.4,128.9,M,-26.0,M,,*6C
1354234650265477329;compass/AK8973 Magnetic Field;39.4375 10.375 34.8125 3
1354234650265447329;accel/kr3dh;-0.16344418 0.013620348 9.752169 3
1354234650265447329;linaccel/Linear Acceleration Sensor;-0.008207232 0.027587026 -0.084308624 3
1354234650265386329;orientation/AK8973 Compass;284.01563 -0.078125 -0.953125 1
1354234650262000000;rawNmea;$GPVTG,307.6,T,307.6,M,0.0,N,0.0,K,A*23
1354234650272000000;rawNmea;$GPRMC,001729.0,A,3752.505874,N,12215.509042,W,0.0,307.6,301112,,,A*74
1354234650274000000;rawNmea;$GPGSA,A,3,03,06,11,14,18,19,,,,,,,2.7,1.4,2.4*35
1354234649000000000;latLngE7Gps;378750979 -1222584840 22.0 -1.0 0.0
1354234650364751329;compass/AK8973 Magnetic Field;39.4375 10.125 34.5625 3
1354234650364721329;accel/kr3dh;-0.24516626 -0.05448139 9.779409 3
1354234650364721329;linaccel/Linear Acceleration Sensor;-0.08685218 -0.04051549 -0.062571526 3
1354234650364660329;orientation/AK8973 Compass;284.03125 0.3125 -1.421875 1
1354234650461248329;orientation/AK8973 Compass;284.01563 0.078125 -0.5625 1
1354234650461248329;accel/kr3dh;-0.095342435 -0.013620348 9.670447 3
1354234650461248329;compass/AK8973 Magnetic Field;39.1875 9.625 34.5625 3
1354234650461248329;linaccel/Linear Acceleration Sensor;0.07498542 0.0017272094 -0.15395927 3
1354234650558843329;accel/kr3dh;-0.16344418 0.027240695 9.779409 3
1354234650558843329;compass/AK8973 Magnetic Field;39.9375 9.875 35.0625 3
1354234650558843329;linaccel/Linear Acceleration Sensor;0.017365053 0.043867446 -0.010492325 3
1354234650558812329;orientation/AK8973 Compass;283.98438 -0.171875 -0.953125 1
1354234650654454329;compass/AK8973 Magnetic Field;39.9375 9.875 35.5625 3
1354234650654424329;accel/kr3dh;-0.16344418 -0.095342435 9.779409 3
1354234650654424329;linaccel/Linear Acceleration Sensor;0.016259 -0.078093484 0.023449898 3
1354234650654393329;orientation/AK8973 Compass;284.0 0.5625 -0.953125 1
1354234650751134329;compass/AK8973 Magnetic Field;39.9375 9.875 35.8125 3
1354234650751104329;orientation/AK8973 Compass;283.98438 0.0 -0.5625 1
1354234650751104329;accel/kr3dh;-0.095342435 -0.0 9.874752 3
1354234650751104329;linaccel/Linear Acceleration Sensor;0.07251533 0.018191267 0.13533306 3
1354234650826727052;wifi;00:23:04:89:cd:b2,UNKNOWN,-75 28:cf:da:b8:1e:d5,UNKNOWN,-81 00:17:df:a7:33:12,UNKNOWN,-82 00:22:90:39:07:12,UNKNOWN,-83 00:22:90:39:65:b2,UNKNOWN,-89 00:17:df:a7:4c:f2,UNKNOWN,-91 00:23:04:89:cd:b5,UNKNOWN,-72 00:17:df:a8:60:65,UNKNOWN,-78 00:22:90:39:07:15,UNKNOWN,-82 00:17:df:a7:33:15,UNKNOWN,-83 00:22:90:39:65:b5,UNKNOWN,-90 00:23:04:89:cd:b0,UNKNOWN,-72 00:13:5f:55:d8:b0,UNKNOWN,-72 00:23:04:89:cd:b6,UNKNOWN,-74 00:17:df:a8:60:61,UNKNOWN,-75 00:17:df:a8:60:60,UNKNOWN,-76 00:17:df:a8:60:66,UNKNOWN,-78 00:22:90:39:07:16,UNKNOWN,-83 00:17:df:a7:33:16,UNKNOWN,-83 00:17:df:a7:33:11,UNKNOWN,-83 00:17:df:a7:33:10,UNKNOWN,-84 00:22:90:39:07:10,UNKNOWN,-86 00:22:90:39:07:11,UNKNOWN,-87 00:17:df:a7:4c:f0,UNKNOWN,-88 08:ed:b9:5d:b2:0c,UNKNOWN,-94 
1354234650869146329;accel/kr3dh;-0.08172209 -0.0 9.861132 3
1354234650869146329;compass/AK8973 Magnetic Field;39.9375 10.125 36.375 3
1354234650869146329;linaccel/Linear Acceleration Sensor;0.065035544 0.022630824 0.10108948 3
1354234650869115329;orientation/AK8973 Compass;284.0 0.0 -0.484375 1
1354234650964422329;compass/AK8973 Magnetic Field;39.6875 10.125 35.5625 3
1354234650964391329;accel/kr3dh;-0.19068487 -0.040861044 9.820271 3
1354234650964391329;linaccel/Linear Acceleration Sensor;-0.061759517 -0.01556593 0.024199486 3
1354234650964361329;orientation/AK8973 Compass;284.01563 0.25 -1.125 1
1354234651065557329;compass/AK8973 Magnetic Field;39.6875 9.875 35.8125 3
1354234651065526329;accel/kr3dh;-0.14982383 -0.0 9.779409 3
1354234651065526329;linaccel/Linear Acceleration Sensor;-0.032685615 0.023704287 -0.05461979 3
1354234651065465329;orientation/AK8973 Compass;284.0 0.0 -0.875 1
1354234651163640329;compass/AK8973 Magnetic Field;39.6875 10.375 35.8125 3
1354234651163610329;accel/kr3dh;-0.14982383 -0.06810174 9.80665 3
1354234651163610329;linaccel/Linear Acceleration Sensor;-0.029807255 -0.04714695 -0.04228592 3
1354234651163579329;orientation/AK8973 Compass;284.04688 0.390625 -0.875 1
1354234651229000000;rawNmea;$GPGSV,4,1,13,03,31,239,30,06,31,219,33,11,18,310,20,14,79,149,19*7C
1354234651235000000;rawNmea;$GPGSV,4,2,13,18,32,068,20,19,42,272,35,21,17,129,25,01,03,312,*7C
1354234651237000000;rawNmea;$GPGSV,4,3,13,09,10,039,,22,65,029,,24,13,046,,31,02,170,*76
1354234651239000000;rawNmea;$GPGSV,4,4,13,32,10,268,*47
1354234651246000000;rawNmea;$GPGGA,001730.0,3752.505951,N,12215.509044,W,1,06,2.1,129.0,M,-26.0,M,,*6A
1354234651253000000;rawNmea;$GPVTG,307.6,T,307.6,M,0.0,N,0.0,K,A*23
1354234651260000000;rawNmea;$GPRMC,001730.0,A,3752.505951,N,12215.509044,W,0.0,307.6,301112,,,A*7C
1354234651266881329;compass/AK8973 Magnetic Field;39.4375 11.1875 35.0625 3
1354234651266851329;accel/kr3dh;-0.17706452 -0.05448139 9.80665 3
1354234651266851329;linaccel/Linear Acceleration Sensor;-0.04105021 -0.03213247 -0.030434608 3
1354234651266790329;orientation/AK8973 Compass;284.15625 0.3125 -1.03125 1
1354234651273000000;rawNmea;$GPGSA,A,3,03,06,11,14,18,19,,,,,,,3.3,2.1,2.6*34
1354234650000000000;latLngE7Gps;378750991 -1222584840 22.0 -1.0 0.0
1354234651362188329;compass/AK8973 Magnetic Field;39.4375 10.375 35.8125 3
1354234651362157329;orientation/AK8973 Compass;284.1875 0.171875 -0.78125 1
1354234651362157329;accel/kr3dh;-0.13620348 -0.027240695 9.80665 3
1354234651362157329;linaccel/Linear Acceleration Sensor;0.015168086 0.0022824127 -0.0109472275 3
1354234651464086329;compass/AK8973 Magnetic Field;39.6875 10.625 35.3125 3
1354234651464055329;accel/kr3dh;-0.16344418 -0.05448139 9.765789 3
1354234651464055329;linaccel/Linear Acceleration Sensor;-0.002951309 -0.014485516 -0.036222458 3
1354234651463994329;orientation/AK8973 Compass;284.23438 0.3125 -0.953125 1
1354234651560643329;compass/AK8973 Magnetic Field;39.9375 10.375 34.8125 3
1354234651560613329;accel/kr3dh;-0.17706452 -0.027240695 9.738548 3
1354234651560613329;linaccel/Linear Acceleration Sensor;-0.014642701 0.01904091 -0.054896355 3
1354234651560582329;orientation/AK8973 Compass;284.25 0.171875 -1.03125 1
1354234651656987329;accel/kr3dh;-0.14982383 -0.05448139 9.861132 3
1354234651656987329;compass/AK8973 Magnetic Field;40.1875 10.125 35.0625 3
1354234651656987329;linaccel/Linear Acceleration Sensor;0.011481062 -0.0075214393 0.0745945 3
1354234651656957329;orientation/AK8973 Compass;284.25 0.3125 -0.875 1
1354234651773168703;wifi;00:23:04:89:cd:b2,UNKNOWN,-79 00:22:90:39:07:12,UNKNOWN,-81 00:17:df:a7:33:12,UNKNOWN,-82 00:17:df:a8:60:62,UNKNOWN,-83 28:cf:da:b8:1e:d5,UNKNOWN,-87 00:17:df:a7:4c:f2,UNKNOWN,-91 b8:c7:5d:08:bd:fd,UNKNOWN,-95 00:22:90:39:65:b2,UNKNOWN,-95 00:22:90:39:b5:b2,UNKNOWN,-96 00:23:04:89:cd:b5,UNKNOWN,-72 00:17:df:a8:60:65,UNKNOWN,-78 00:17:df:a7:33:15,UNKNOWN,-84 00:22:90:39:07:15,UNKNOWN,-88 00:22:90:39:65:b5,UNKNOWN,-91 00:22:90:39:b5:b5,UNKNOWN,-95 00:23:04:89:cd:b0,UNKNOWN,-72 00:13:5f:55:d8:b0,UNKNOWN,-72 00:23:04:89:cd:b6,UNKNOWN,-73 00:23:04:89:cd:b1,UNKNOWN,-79 00:22:90:39:07:11,UNKNOWN,-81 00:22:90:39:07:10,UNKNOWN,-81 00:17:df:a7:33:16,UNKNOWN,-83 00:17:df:a7:33:10,UNKNOWN,-83 00:17:df:a8:60:61,UNKNOWN,-84 00:17:df:a7:4c:f1,UNKNOWN,-87 00:17:df:a8:60:66,UNKNOWN,-87 00:22:90:39:b5:b0,UNKNOWN,-89 00:17:df:a8:60:60,UNKNOWN,-89 00:22:90:39:65:b1,UNKNOWN,-90 00:22:90:39:b5:b6,UNKNOWN,-91 00:22:90:39:65:b0,UNKNOWN,-91 08:ed:b9:5d:b2:0c,UNKNOWN,-93 00:17:df:a7:33:11,UNKNOWN,-94 00:23:04:89:c3:d1,UNKNOWN,-94 
1354234651754674329;compass/AK8973 Magnetic Field;40.1875 10.375 34.8125 3
1354234651754644329;accel/kr3dh;-0.095342435 -0.05448139 9.697687 3
1354234651754644329;linaccel/Linear Acceleration Sensor;0.06450283 -0.0095447 -0.08285713 3
1354234651754583329;orientation/AK8973 Compass;284.28125 0.34375 -0.5625 1
1354234651852117329;accel/kr3dh;-0.14982383 -0.040861044 9.80665 3
1354234651852117329;compass/AK8973 Magnetic Field;40.4375 10.625 34.3125 3
1354234651852117329;linaccel/Linear Acceleration Sensor;0.005338967 0.0031932257 0.029194832 3
1354234651852086329;orientation/AK8973 Compass;284.3125 0.25 -0.875 1
1354234651948339329;compass/AK8973 Magnetic Field;40.1875 10.375 35.3125 3
1354234651948308329;orientation/AK8973 Compass;284.32813 0.390625 -1.03125 1
1354234651948308329;accel/kr3dh;-0.17706452 -0.06810174 9.724928 3
1354234651948308329;linaccel/Linear Acceleration Sensor;-0.030797407 -0.022465888 -0.049798965 3
1354234652044439329;compass/AK8973 Magnetic Field;40.4375 9.625 35.8125 3
1354234652044378329;accel/kr3dh;-0.23154591 -0.0 9.80665 3
1354234652044378329;linaccel/Linear Acceleration Sensor;-0.090633124 0.04801972 0.036536217 3
1354234652044347329;orientation/AK8973 Compass;284.25 0.0 -1.34375 1
1354234652140294329;orientation/AK8973 Compass;284.1875 0.3125 -1.421875 1
1354234652140294329;accel/kr3dh;-0.24516626 -0.05448139 9.80665 3
1354234652140294329;compass/AK8973 Magnetic Field;40.4375 9.625 36.0625 3
1354234652140294329;linaccel/Linear Acceleration Sensor;-0.09562488 -0.0064577796 0.03982258 3
1354234652235000000;rawNmea;$GPGSV,4,1,13,03,31,239,29,06,31,219,33,11,18,310,20,14,79,149,19*74
1354234652242000000;rawNmea;$GPGSV,4,2,13,18,32,068,20,19,42,272,35,21,17,129,25,01,03,312,*7C
1354234652247533329;compass/AK8973 Magnetic Field;39.6875 9.125 36.875 3
1354234652247503329;accel/kr3dh;-0.19068487 -0.0 9.779409 3
1354234652247503329;linaccel/Linear Acceleration Sensor;-0.013144597 0.04274294 0.008365631 3
1354234652247442329;orientation/AK8973 Compass;284.09375 0.0 -1.125 1
1354234652254000000;rawNmea;$GPGSV,4,3,13,09,10,039,,22,65,029,,24,13,046,,31,02,170,*76
1354234652256000000;rawNmea;$GPGSV,4,4,13,32,10,268,*47
1354234652261000000;rawNmea;$GPGGA,001731.0,3752.506050,N,12215.509042,W,1,05,2.1,129.1,M,-26.0,M,,*64
1354234652263000000;rawNmea;$GPVTG,307.6,T,307.6,M,0.0,N,0.0,K,A*23
1354234652264000000;rawNmea;$GPRMC,001731.0,A,3752.506050,N,12215.509042,W,0.0,307.6,301112,,,A*70
1354234652265000000;rawNmea;$GPGSA,A,3,03,06,14,18,19,,,,,,,,3.3,2.1,2.6*34
1354234651000000000;latLngE7Gps;378751008 -1222584840 25.0 -1.0 0.0
1354234652344640329;compass/AK8973 Magnetic Field;39.4375 9.375 35.8125 3
1354234652344610329;orientation/AK8973 Compass;284.0625 0.390625 -1.03125 1
1354234652344610329;accel/kr3dh;-0.17706452 -0.06810174 9.929234 3
1354234652344610329;linaccel/Linear Acceleration Sensor;0.027759373 -0.032466654 0.1462946 3
1354234652438482329;orientation/AK8973 Compass;284.04688 0.0 -1.03125 1
1354234652438482329;accel/kr3dh;-0.17706452 -0.0 9.861132 3
1354234652438482329;compass/AK8973 Magnetic Field;39.4375 9.875 35.3125 3
1354234652438482329;linaccel/Linear Acceleration Sensor;0.041275248 0.0302861 0.058859825 3
1354234652534398329;compass/AK8973 Magnetic Field;38.9375 9.875 35.3125 3
1354234652534368329;accel/kr3dh;-0.17706452 -0.027240695 9.724928 3
1354234652534368329;linaccel/Linear Acceleration Sensor;0.036735073 8.039195E-4 -0.10207844 3
1354234652534337329;orientation/AK8973 Compass;284.04688 0.171875 -1.03125 1
1354234652631505329;compass/AK8973 Magnetic Field;39.1875 10.125 35.3125 3
1354234652631475329;accel/kr3dh;-0.19068487 -0.013620348 9.711308 3
1354234652631475329;linaccel/Linear Acceleration Sensor;0.007928565 0.013156322 -0.13033772 3
1354234652631414329;orientation/AK8973 Compass;284.0625 0.078125 -1.125 1
1354234652736547609;wifi;00:17:df:a8:60:62,UNKNOWN,-79 00:23:04:89:cd:b2,UNKNOWN,-79 00:17:df:a7:33:12,UNKNOWN,-83 28:cf:da:b8:1e:d5,UNKNOWN,-84 00:22:90:39:07:12,UNKNOWN,-87 00:17:df:a8:60:65,UNKNOWN,-78 00:23:04:89:cd:b5,UNKNOWN,-80 00:22:90:39:07:15,UNKNOWN,-84 00:17:df:a7:33:15,UNKNOWN,-85 00:22:90:39:65:b5,UNKNOWN,-86 00:23:04:89:c3:d5,UNKNOWN,-92 00:23:04:89:cd:b6,UNKNOWN,-71 00:23:04:89:cd:b0,UNKNOWN,-71 00:13:5f:55:d8:b0,UNKNOWN,-72 00:17:df:a8:60:66,UNKNOWN,-78 00:23:04:89:cd:b1,UNKNOWN,-78 00:17:df:a8:60:61,UNKNOWN,-79 00:22:90:39:07:16,UNKNOWN,-80 00:17:df:a7:33:16,UNKNOWN,-84 00:17:df:a7:33:11,UNKNOWN,-84 00:17:df:a7:33:10,UNKNOWN,-85 00:22:90:39:65:b1,UNKNOWN,-88 08:ed:b9:5d:b2:0c,UNKNOWN,-90 00:22:90:39:65:b6,UNKNOWN,-90 00:23:04:89:c3:d6,UNKNOWN,-92 
1354234652741460329;accel/kr3dh;-0.20430522 -0.08172209 9.915613 3
1354234652741460329;compass/AK8973 Magnetic Field;39.6875 10.125 35.8125 3
1354234652741460329;linaccel/Linear Acceleration Sensor;-0.020575717 -0.056513894 0.08918762 3
1354234652741430329;orientation/AK8973 Compass;284.09375 0.46875 -1.171875 1
1354234652837560329;compass/AK8973 Magnetic Field;39.6875 9.875 36.0625 3
1354234652837529329;accel/kr3dh;-0.16344418 -0.0 9.738548 3
1354234652837529329;linaccel/Linear Acceleration Sensor;0.015908435 0.026486285 -0.062399864 3
1354234652837468329;orientation/AK8973 Compass;284.07813 0.0 -0.953125 1
1354234652935582329;compass/AK8973 Magnetic Field;39.9375 9.875 36.0625 3
1354234652935552329;accel/kr3dh;-0.12258313 -0.0 9.670447 3
1354234652935552329;linaccel/Linear Acceleration Sensor;0.05838173 0.030487012 -0.11250019 3
1354234652935491329;orientation/AK8973 Compass;284.0625 0.0 -0.734375 1
1354234653034246329;compass/AK8973 Magnetic Field;39.9375 9.625 35.8125 3
1354234653034215329;orientation/AK8973 Compass;284.0625 0.734375 -0.890625 1
1354234653034215329;accel/kr3dh;-0.14982383 -0.12258313 9.724928 3
1354234653034215329;linaccel/Linear Acceleration Sensor;0.02842094 -0.08991149 -0.046276093 3
1354234653129247329;compass/AK8973 Magnetic Field;39.6875 9.625 35.8125 3
1354234653129216329;accel/kr3dh;-0.08172209 -0.06810174 9.874752 3
1354234653129216329;linaccel/Linear Acceleration Sensor;0.084718786 -0.033311296 0.11907959 3
1354234653129186329;orientation/AK8973 Compass;284.04688 0.390625 -0.484375 1
1354234653225194329;orientation/AK8973 Compass;284.01563 -0.171875 -0.8125 1
1354234653225194329;accel/kr3dh;-0.13620348 0.027240695 9.765789 3
1354234653225194329;compass/AK8973 Magnetic Field;39.6875 9.875 35.3125 3
1354234653225194329;linaccel/Linear Acceleration Sensor;0.011597648 0.069614775 0.021378517 3
1354234653232000000;rawNmea;$GPGSV,4,1,13,03,31,239,29,06,31,219,33,11,18,310,20,14,79,149,19*74
1354234653236000000;rawNmea;$GPGSV,4,2,13,18,32,068,21,19,42,272,34,21,17,129,25,01,03,312,*7C
1354234653242000000;rawNmea;$GPGSV,4,3,13,09,10,039,,22,65,029,,24,13,046,,31,02,170,*76
1354234653248000000;rawNmea;$GPGSV,4,4,13,32,10,268,*47
1354234653263000000;rawNmea;$GPGGA,001732.0,3752.506129,N,12215.509046,W,1,05,2.1,129.2,M,-26.0,M,,*6F
1354234653269000000;rawNmea;$GPVTG,307.6,T,307.6,M,0.0,N,0.0,K,A*23
1354234653276000000;rawNmea;$GPRMC,001732.0,A,3752.506129,N,12215.509046,W,0.0,307.6,301112,,,A*78
1354234653283000000;rawNmea;$GPGSA,A,3,03,06,14,18,19,,,,,,,,3.3,2.1,2.6*34
1354234652000000000;latLngE7Gps;378751021 -1222584840 25.0 -1.0 0.0
1354234653320073329;compass/AK8973 Magnetic Field;39.6875 10.375 35.3125 3
1354234653320043329;accel/kr3dh;-0.20430522 -0.095342435 9.724928 3
1354234653320043329;linaccel/Linear Acceleration Sensor;-0.07369347 -0.04426661 -0.025248528 3
1354234653320012329;orientation/AK8973 Compass;284.0625 0.5625 -1.203125 1
1354234653421361329;orientation/AK8973 Compass;284.07813 0.0 -1.125 1
1354234653421361329;accel/kr3dh;-0.19068487 -0.0 9.765789 3
1354234653421361329;compass/AK8973 Magnetic Field;40.1875 10.375 35.3125 3
