1354234710737372071;metadata_log_format;3 # nanosecond timing
1354234710739050538;metadata_system_time;1354234710739
1354234710740362794;metadata_surveyName;/sdcard/LocationTracker/1354234710705.txt
1354234710742102295;metadata_notes;
1354234710753027588;metadata_deviceInfo;Board: bryce Brand: Verizon Device: bryce Hardware: qcom Manufacturer: LGE Model: VS910 4G Product: bryce
1354234707250000000;latLngE7LastKnown;378754206 -1222587994 45.0 -1.0 -1.0
1354234710816626221;wifi;00:23:04:89:cd:b2,UNKNOWN,-74 00:17:df:a7:33:12,UNKNOWN,-77 00:22:90:39:07:12,UNKNOWN,-80 00:17:df:a8:60:62,UNKNOWN,-83 00:17:df:a7:4c:f2,UNKNOWN,-88 00:23:04:89:cd:b5,UNKNOWN,-74 00:22:90:39:07:15,UNKNOWN,-80 00:17:df:a7:33:15,UNKNOWN,-77 00:17:df:a8:60:65,UNKNOWN,-86 00:17:df:a7:4c:f5,UNKNOWN,-88 00:23:04:89:cd:b0,UNKNOWN,-71 00:23:04:89:cd:b1,UNKNOWN,-72 00:23:04:89:cd:b6,UNKNOWN,-74 00:13:5f:55:d8:b0,UNKNOWN,-76 00:17:df:a7:33:11,UNKNOWN,-76 00:17:df:a7:33:16,UNKNOWN,-77 00:17:df:a7:33:10,UNKNOWN,-77 00:22:90:39:07:16,UNKNOWN,-80 00:22:90:39:07:10,UNKNOWN,-80 00:17:df:a8:60:61,UNKNOWN,-83 00:17:df:a8:60:66,UNKNOWN,-86 00:17:df:a7:4c:f0,UNKNOWN,-87 00:17:df:a8:60:60,UNKNOWN,-87 00:17:df:a7:4c:f1,UNKNOWN,-90 
1354234710839147343;compass/AK8973 Magnetic Field;14.9375 18.75 26.25 3
1354234710839117343;orientation/AK8973 Compass;316.53125 -4.09375 -2.0625 1
1354234710839117343;accel/kr3dh;-0.35412905 0.6946377 9.711308 3
1354234710839117343;linaccel/Linear Acceleration Sensor;0.0 0.0 0.0 3
1354234710931494343;compass/AK8973 Magnetic Field;14.4375 18.25 26.25 3
1354234710931463343;orientation/AK8973 Compass;316.5 -4.59375 -2.234375 1
1354234710931463343;accel/kr3dh;-0.38136974 0.7763598 9.684067 3
1354234710931463343;linaccel/Linear Acceleration Sensor;-0.026878208 0.080634594 -0.026878357 3
1354234711026678343;orientation/AK8973 Compass;316.54688 -3.421875 -2.15625 1
1354234711026678343;accel/kr3dh;-0.3677494 0.58567494 9.779409 3
1354234711026678343;compass/AK8973 Magnetic Field;14.1875 18.0 25.75 3
1354234711026678343;linaccel/Linear Acceleration Sensor;-0.011261523 -0.11383909 0.0692606 3
1354234711121435343;compass/AK8973 Magnetic Field;14.1875 17.6875 25.75 3
1354234711121404343;accel/kr3dh;-0.42223078 0.7354988 9.80665 3
1354234711121404343;linaccel/Linear Acceleration Sensor;-0.060621202 0.033018112 0.09378719 3
1354234711121374343;orientation/AK8973 Compass;316.5 -4.28125 -2.46875 1
1354234711218237343;compass/AK8973 Magnetic Field;14.1875 17.6875 25.5 3
1354234711218206343;accel/kr3dh;-0.35412905 0.6537767 9.765789 3
1354234711218206343;linaccel/Linear Acceleration Sensor;0.01629895 -0.044905424 0.03957939 3
1354234711218176343;orientation/AK8973 Compass;316.5 -3.84375 -2.0625 1
1354234711241000000;rawNmea;$GPGSV,4,1,13,03,32,239,24,06,31,219,21,18,32,068,27,19,42,272,28*7F
1354234711242000000;rawNmea;$GPGSV,4,2,13,21,16,129,15,22,64,030,18,01,03,312,,09,09,039,*77
1354234711250000000;rawNmea;$GPGSV,4,3,13,11,18,310,,14,80,147,,24,13,046,,31,03,170,*79
1354234711253000000;rawNmea;$GPGSV,4,4,13,32,10,268,*47
1354234711266000000;rawNmea;$GPGGA,001830.0,3752.508600,N,12215.509127,W,1,03,500.0,132.8,M,-26.0,M,,*66
1354234711270000000;rawNmea;$GPVTG,307.6,T,307.6,M,0.0,N,0.0,K,A*23
1354234711274000000;rawNmea;$GPRMC,001830.0,A,3752.508600,N,12215.509127,W,0.0,307.6,301112,,,A*71
1354234711278000000;rawNmea;$GPGSA,A,3,06,19,21,,,,,,,,,,500.0,500.0,500.0*3A
1354234710000000000;latLngE7Gps;378751433 -1222584854 71.0 -1.0 0.0
1354234711315771343;compass/AK8973 Magnetic Field;14.4375 18.25 25.25 3
1354234711315740343;orientation/AK8973 Compass;316.54688 -3.921875 -1.90625 1
1354234711315740343;accel/kr3dh;-0.32688835 0.667397 9.765789 3
1354234711315740343;linaccel/Linear Acceleration Sensor;0.052132726 -0.021743119 0.0164814 3
1354234711409216343;accel/kr3dh;-0.3949901 0.8036005 9.80665 3
1354234711409216343;compass/AK8973 Magnetic Field;14.4375 18.5 25.5 3
1354234711409216343;linaccel/Linear Acceleration Sensor;-0.014382303 0.12207121 0.036325455 3
1354234711409185343;orientation/AK8973 Compass;316.54688 -4.671875 -2.296875 1
1354234711503851343;compass/AK8973 Magnetic Field;14.6875 18.75 26.0 3
1354234711503820343;accel/kr3dh;-0.313268 0.6946377 9.684067 3
1354234711503820343;linaccel/Linear Acceleration Sensor;0.060403436 0.011247337 -0.09745312 3
1354234711503759343;orientation/AK8973 Compass;316.59375 -4.09375 -1.84375 1
1354234711603796631;wifi;00:22:90:39:07:12,UNKNOWN,-75 00:17:df:a7:33:12,UNKNOWN,-79 00:17:df:a7:4c:f2,UNKNOWN,-87 00:23:04:89:cd:b5,UNKNOWN,-72 00:17:df:a7:33:15,UNKNOWN,-78 00:17:df:a8:60:65,UNKNOWN,-83 00:22:90:39:07:15,UNKNOWN,-83 00:17:df:a7:4c:f5,UNKNOWN,-89 00:23:04:89:cd:b1,UNKNOWN,-72 00:13:5f:55:d8:b0,UNKNOWN,-74 00:22:90:39:07:10,UNKNOWN,-76 00:22:90:39:07:16,UNKNOWN,-77 00:22:90:39:07:11,UNKNOWN,-77 00:17:df:a7:33:10,UNKNOWN,-77 00:17:df:a7:33:11,UNKNOWN,-78 00:17:df:a7:33:16,UNKNOWN,-79 00:17:df:a8:60:60,UNKNOWN,-82 00:22:90:39:65:b0,UNKNOWN,-83 00:17:df:a8:60:66,UNKNOWN,-84 00:17:df:a7:4c:f1,UNKNOWN,-87 00:17:df:a7:4c:f0,UNKNOWN,-89 00:17:df:a7:4c:f6,UNKNOWN,-89 
1354234711600347343;compass/AK8973 Magnetic Field;14.6875 18.75 25.75 3
1354234711600317343;accel/kr3dh;-0.35412905 0.7899802 9.765789 3
1354234711600317343;linaccel/Linear Acceleration Sensor;0.008651376 0.09118426 -0.013954163 3
1354234711600286343;orientation/AK8973 Compass;316.60938 -4.625 -2.0625 1
1354234711694647343;accel/kr3dh;-0.3405087 0.7082581 9.765789 3
1354234711694647343;linaccel/Linear Acceleration Sensor;0.012240887 -0.012523353 -0.0020751953 3
1354234711694616343;orientation/AK8973 Compass;316.65625 -4.140625 -1.984375 1
1354234711790624343;compass/AK8973 Magnetic Field;15.1875 18.25 25.75 3
1354234711790594343;accel/kr3dh;-0.40861043 0.7218784 9.765789 3
1354234711790594343;linaccel/Linear Acceleration Sensor;-0.06232819 -0.01713556 0.011307716 3
1354234711790533343;orientation/AK8973 Compass;316.5625 -4.234375 -2.375 1
1354234711887701343;compass/AK8973 Magnetic Field;14.9375 18.5 25.5 3
1354234711887670343;accel/kr3dh;-0.3405087 0.7082581 9.711308 3
1354234711887670343;linaccel/Linear Acceleration Sensor;0.0065105855 -0.03690481 -0.037101746 3
1354234711887609343;orientation/AK8973 Compass;316.54688 -4.171875 -2.015625 1
1354234711982672343;orientation/AK8973 Compass;316.57813 -4.25 -2.09375 1
1354234711982672343;accel/kr3dh;-0.35412905 0.7218784 9.670447 3
1354234711982672343;compass/AK8973 Magnetic Field;14.6875 18.75 25.75 3
1354234711982672343;linaccel/Linear Acceleration Sensor;-2.1547079E-5 -0.017301679 -0.07640743 3
1354234712078588343;compass/AK8973 Magnetic Field;14.9375 18.75 25.75 3
1354234712078558343;accel/kr3dh;-0.3405087 0.58567494 9.765789 3
1354234712078558343;linaccel/Linear Acceleration Sensor;0.020475566 -0.1399467 0.025054932 3
1354234712078527343;orientation/AK8973 Compass;316.625 -3.4375 -1.984375 1
1354234712175298343;compass/AK8973 Magnetic Field;14.4375 18.75 25.5 3
1354234712175268343;accel/kr3dh;-0.44947147 0.6810174 9.765789 3
1354234712175268343;linaccel/Linear Acceleration Sensor;-0.086411536 -0.025383294 0.035951614 3
1354234712175237343;orientation/AK8973 Compass;316.67188 -3.96875 -2.625 1
1354234712243000000;rawNmea;$GPGSV,4,1,13,03,32,239,24,06,31,219,21,18,32,068,27,19,42,272,28*7F
1354234712248000000;rawNmea;$GPGSV,4,2,13,21,16,129,15,22,64,030,18,01,03,312,,09,09,039,*77
1354234712254000000;rawNmea;$GPGSV,4,3,13,11,18,310,,14,80,147,,24,13,046,,31,03,170,*79
1354234712261000000;rawNmea;$GPGSV,4,4,13,32,10,268,*47
1354234712275213343;compass/AK8973 Magnetic Field;14.4375 18.25 26.0 3
1354234712275183343;accel/kr3dh;-0.21792556 0.61291564 9.670447 3
1354234712275183343;linaccel/Linear Acceleration Sensor;0.14494695 -0.068204165 -0.053304672 3
1354234712275121343;orientation/AK8973 Compass;316.75 -3.640625 -1.28125 1
1354234712281000000;rawNmea;$GPGGA,001831.0,3752.508600,N,12215.509127,W,1,03,500.0,132.8,M,-26.0,M,,*67
1354234712284000000;rawNmea;$GPVTG,307.6,T,307.6,M,0.0,N,0.0,K,A*23
1354234712286000000;rawNmea;$GPRMC,001831.0,A,3752.508600,N,12215.509127,W,0.0,307.6,301112,,,A*70
1354234712288000000;rawNmea;$GPGSA,A,3,06,19,21,,,,,,,,,,500.0,500.0,500.0*3A
1354234711000000000;latLngE7Gps;378751433 -1222584854 80.0 -1.0 0.0
1354234712372228343;compass/AK8973 Magnetic Field;14.1875 18.25 26.25 3
1354234712372198343;accel/kr3dh;-0.40861043 0.667397 9.765789 3
1354234712372198343;linaccel/Linear Acceleration Sensor;-0.04780835 0.010250151 0.040350914 3
1354234712372167343;orientation/AK8973 Compass;316.76563 -3.921875 -2.375 1
1354234712457281739;wifi;00:23:04:89:cd:b2,UNKNOWN,-75 00:22:90:39:07:12,UNKNOWN,-76 00:17:df:a8:60:62,UNKNOWN,-83 28:cf:da:b8:1e:d5,UNKNOWN,-86 b8:c7:5d:08:bd:fd,UNKNOWN,-87 00:23:04:89:cd:b5,UNKNOWN,-74 00:17:df:a7:33:15,UNKNOWN,-77 00:17:df:a7:4c:f5,UNKNOWN,-87 00:23:04:89:cd:b6,UNKNOWN,-73 00:23:04:89:cd:b1,UNKNOWN,-74 00:23:04:89:cd:b0,UNKNOWN,-75 00:22:90:39:07:11,UNKNOWN,-77 00:17:df:a7:33:10,UNKNOWN,-77 00:22:90:39:07:16,UNKNOWN,-77 00:17:df:a7:33:11,UNKNOWN,-77 00:17:df:a7:33:16,UNKNOWN,-77 00:22:90:39:07:10,UNKNOWN,-78 00:22:90:39:65:b1,UNKNOWN,-84 00:17:df:a7:4c:f6,UNKNOWN,-87 00:17:df:a7:4c:f1,UNKNOWN,-88 00:22:90:39:b5:b0,UNKNOWN,-92 
1354234712471014343;compass/AK8973 Magnetic Field;14.1875 18.0 26.25 3
1354234712470983343;orientation/AK8973 Compass;316.76563 -3.8125 -2.203125 1
1354234712470983343;accel/kr3dh;-0.38136974 0.6537767 9.820271 3
1354234712470983343;linaccel/Linear Acceleration Sensor;-0.027009755 0.012044609 0.089920044 3
1354234712566900343;compass/AK8973 Magnetic Field;14.6875 18.5 27.0 3
1354234712566870343;accel/kr3dh;-0.29964766 0.5720546 9.79303 3
1354234712566870343;linaccel/Linear Acceleration Sensor;0.049281985 -0.06477165 0.053239822 3
1354234712566808343;orientation/AK8973 Compass;316.8125 -3.328125 -1.765625 1
1354234712665136343;orientation/AK8973 Compass;316.82813 -4.453125 -2.375 1
1354234712665136343;accel/kr3dh;-0.40861043 0.7627395 9.779409 3
1354234712665136343;compass/AK8973 Magnetic Field;14.6875 19.0 26.5 3
1354234712665136343;linaccel/Linear Acceleration Sensor;-0.059425145 0.1250773 0.021203041 3
1354234712758062343;accel/kr3dh;-0.38136974 0.8036005 9.79303 3
1354234712758062343;compass/AK8973 Magnetic Field;15.1875 19.0 25.75 3
1354234712758062343;linaccel/Linear Acceleration Sensor;-0.028454334 0.15981132 0.014749527 3
1354234712758032343;orientation/AK8973 Compass;316.78125 -4.671875 -2.203125 1
1354234712852056343;compass/AK8973 Magnetic Field;15.1875 19.25 25.5 3
1354234712851995343;accel/kr3dh;-0.3405087 0.7082581 9.80665 3
1354234712851995343;linaccel/Linear Acceleration Sensor;0.018599719 0.043925107 0.01425457 3
1354234712851965343;orientation/AK8973 Compass;316.8125 -4.109375 -1.984375 1
1354234712952978343;accel/kr3dh;-0.40861043 0.6946377 9.779409 3
1354234712952978343;compass/AK8973 Magnetic Field;14.6875 19.0 24.9375 3
1354234712952978343;linaccel/Linear Acceleration Sensor;-0.041710675 -0.00659734 -0.018619537 3
1354234712952947343;orientation/AK8973 Compass;316.85938 -4.0625 -2.375 1
1354234713049200343;compass/AK8973 Magnetic Field;14.6875 18.5 25.25 3
1354234713049169343;accel/kr3dh;-0.40861043 0.7082581 9.80665 3
1354234713049169343;linaccel/Linear Acceleration Sensor;-0.035432696 -0.021645904 0.008317947 3
1354234713049108343;orientation/AK8973 Compass;316.84375 -4.109375 -2.375 1
1354234713147070343;compass/AK8973 Magnetic Field;14.1875 18.5 26.0 3
1354234713147039343;accel/kr3dh;-0.313268 0.6810174 9.80665 3
1354234713147039343;linaccel/Linear Acceleration Sensor;0.06545532 -0.05534959 0.00972271 3
1354234713147009343;orientation/AK8973 Compass;316.92188 -3.96875 -1.8125 1
1354234713265936523;wifi;00:23:04:89:cd:b2,UNKNOWN,-74 00:17:df:a7:33:12,UNKNOWN,-77 00:17:df:a8:60:62,UNKNOWN,-80 00:22:90:39:07:12,UNKNOWN,-82 00:17:df:a7:4c:f2,UNKNOWN,-90 00:23:04:89:cd:b5,UNKNOWN,-75 00:17:df:a8:60:65,UNKNOWN,-76 00:22:90:39:07:15,UNKNOWN,-77 00:17:df:a7:33:15,UNKNOWN,-77 00:22:90:39:65:b5,UNKNOWN,-82 00:17:df:a7:4c:f5,UNKNOWN,-88 00:23:04:89:cd:b6,UNKNOWN,-76 00:13:5f:55:d8:b0,UNKNOWN,-76 00:23:04:89:cd:b0,UNKNOWN,-76 00:23:04:89:cd:b1,UNKNOWN,-77 00:22:90:39:07:10,UNKNOWN,-77 00:17:df:a7:33:10,UNKNOWN,-77 00:17:df:a7:33:16,UNKNOWN,-77 00:17:df:a7:33:11,UNKNOWN,-77 00:22:90:39:07:16,UNKNOWN,-78 00:17:df:a8:60:61,UNKNOWN,-79 00:17:df:a8:60:66,UNKNOWN,-79 00:17:df:a8:60:60,UNKNOWN,-80 00:22:90:39:65:b0,UNKNOWN,-83 00:22:90:39:b5:b1,UNKNOWN,-90 00:22:90:39:65:b1,UNKNOWN,-91 00:22:90:39:b5:b6,UNKNOWN,-92 00:23:04:89:c3:d6,UNKNOWN,-94 00:23:04:89:c3:d1,UNKNOWN,-94 
1354234713250982343;compass/AK8973 Magnetic Field;13.875 18.75 26.25 3
1354234713250952343;accel/kr3dh;-0.313268 0.7082581 9.80665 3
1354234713250952343;linaccel/Linear Acceleration Sensor;0.06672245 -0.014661372 0.009616852 3
1354234713250921343;orientation/AK8973 Compass;317.04688 -4.109375 -1.8125 1
1354234713254000000;rawNmea;$GPGSV,4,1,13,03,32,239,24,06,31,219,21,18,32,068,27,19,42,272,28*7F
1354234713269000000;rawNmea;$GPGSV,4,2,13,21,16,129,15,01,03,312,,09,09,039,,11,18,310,*74
1354234713273000000;rawNmea;$GPGSV,4,3,13,14,80,147,,22,64,030,,24,13,046,,31,03,170,*73
1354234713275000000;rawNmea;$GPGSV,4,4,13,32,10,268,*47
1354234713287000000;rawNmea;$GPGGA,001832.0,3752.508600,N,12215.509127,W,1,03,500.0,132.8,M,-26.0,M,,*64
1354234713289000000;rawNmea;$GPVTG,307.6,T,307.6,M,0.0,N,0.0,K,A*23
1354234713291000000;rawNmea;$GPRMC,001832.0,A,3752.508600,N,12215.509127,W,0.0,307.6,301112,,,A*73
1354234713293000000;rawNmea;$GPGSA,A,3,06,19,21,,,,,,,,,,500.0,500.0,500.0*3A
1354234712000000000;latLngE7Gps;378751433 -1222584854 90.0 -1.0 0.0
1354234713345281343;compass/AK8973 Magnetic Field;14.1875 18.75 26.0 3
1354234713345251343;orientation/AK8973 Compass;317.125 -3.859375 -2.09375 1
1354234713345251343;accel/kr3dh;-0.35412905 0.6537767 9.684067 3
1354234713345251343;linaccel/Linear Acceleration Sensor;0.016722828 -0.052553833 -0.113759995 3
1354234713441046343;compass/AK8973 Magnetic Field;14.1875 19.0 26.25 3
1354234713441015343;accel/kr3dh;-0.38136974 0.667397 9.765789 3
1354234713441015343;linaccel/Linear Acceleration Sensor;-0.027635008 -0.024818242 -0.026914597 3
1354234713440985343;orientation/AK8973 Compass;317.20313 -3.921875 -2.234375 1
1354234713544775343;compass/AK8973 Magnetic Field;14.6875 19.0 25.75 3
1354234713544744343;accel/kr3dh;-0.3949901 0.7899802 9.874752 3
1354234713544744343;linaccel/Linear Acceleration Sensor;-0.05266148 0.10718429 0.096969604 3
1354234713544714343;orientation/AK8973 Compass;317.1875 -4.5625 -2.296875 1
1354234713641729343;compass/AK8973 Magnetic Field;15.1875 18.75 25.5 3
1354234713641638343;accel/kr3dh;-0.32688835 0.84446156 9.80665 3
1354234713641638343;linaccel/Linear Acceleration Sensor;0.019483745 0.15864897 0.037704468 3
1354234713641577343;orientation/AK8973 Compass;317.09375 -4.9375 -1.90625 1
1354234713744177343;compass/AK8973 Magnetic Field;14.9375 18.75 26.0 3
1354234713744146343;accel/kr3dh;-0.35412905 0.6537767 9.670447 3
1354234713744146343;linaccel/Linear Acceleration Sensor;0.005030364 -0.056479037 -0.10617161 3
1354234713744116343;orientation/AK8973 Compass;317.07813 -3.859375 -2.09375 1
1354234713840612343;compass/AK8973 Magnetic Field;15.1875 19.0 25.25 3
1354234713840582343;accel/kr3dh;-0.38136974 0.7354988 9.697687 3
1354234713840582343;linaccel/Linear Acceleration Sensor;-0.01562196 -0.0052857995 -0.087114334 3
1354234713840521343;orientation/AK8973 Compass;317.04688 -4.34375 -2.234375 1
1354234713935491343;accel/kr3dh;-0.3405087 0.7218784 9.643207 3
1354234713935491343;compass/AK8973 Magnetic Field;15.1875 18.75 25.75 3
1354234713935491343;linaccel/Linear Acceleration Sensor;0.024068564 -0.034664392 -0.13021374 3
1354234713935461343;orientation/AK8973 Compass;316.98438 -4.28125 -2.015625 1
1354234714063116699;wifi;00:17:df:a7:33:12,UNKNOWN,-77 00:23:04:89:cd:b2,UNKNOWN,-78 00:17:df:a8:60:62,UNKNOWN,-79 00:22:90:39:07:12,UNKNOWN,-79 00:17:df:a7:4c:f2,UNKNOWN,-88 28:cf:da:b8:1e:d5,UNKNOWN,-89 00:23:04:89:cd:b5,UNKNOWN,-74 00:17:df:a7:33:15,UNKNOWN,-75 00:23:04:89:c3:d5,UNKNOWN,-94 00:23:04:89:cd:b6,UNKNOWN,-72 00:17:df:a7:33:16,UNKNOWN,-76 00:17:df:a7:33:10,UNKNOWN,-76 00:17:df:a7:33:11,UNKNOWN,-76 00:23:04:89:cd:b0,UNKNOWN,-77 00:22:90:39:07:16,UNKNOWN,-77 00:22:90:39:07:10,UNKNOWN,-77 00:13:5f:55:d8:b0,UNKNOWN,-77 00:17:df:a8:60:66,UNKNOWN,-79 00:22:90:39:07:11,UNKNOWN,-80 00:17:df:a8:60:61,UNKNOWN,-80 00:17:df:a7:4c:f6,UNKNOWN,-89 00:22:90:39:b5:b1,UNKNOWN,-89 00:22:90:39:b5:b6,UNKNOWN,-90 00:22:90:39:b5:b0,UNKNOWN,-91 
1354234714046514343;compass/AK8973 Magnetic Field;14.9375 18.75 25.75 3
1354234714046484343;accel/kr3dh;-0.35412905 0.7218784 9.79303 3
1354234714046484343;linaccel/Linear Acceleration Sensor;0.005757928 -0.025817871 0.058612823 3
1354234714046423343;orientation/AK8973 Compass;316.96875 -4.203125 -2.0625 1
1354234714142095343;accel/kr3dh;-0.40861043 0.6537767 9.779409 3
1354234714142095343;compass/AK8973 Magnetic Field;14.9375 19.0 25.5 3
1354234714142095343;linaccel/Linear Acceleration Sensor;-0.051253855 -0.078569114 0.07377243 3
1354234714142065343;orientation/AK8973 Compass;316.98438 -3.8125 -2.375 1
1354234714236212343;compass/AK8973 Magnetic Field;14.9375 18.75 26.0 3
1354234714236151343;accel/kr3dh;-0.313268 0.7082581 9.765789 3
1354234714236151343;linaccel/Linear Acceleration Sensor;0.044709265 -0.008639276 0.06356335 3
1354234714236120343;orientation/AK8973 Compass;316.98438 -4.140625 -1.8125 1
1354234714243000000;rawNmea;$GPGSV,4,1,13,03,32,239,24,06,31,219,21,18,32,068,27,19,42,272,28*7F
1354234714247000000;rawNmea;$GPGSV,4,2,13,21,16,129,15,01,03,312,,09,09,039,,11,18,310,*74
1354234714249000000;rawNmea;$GPGSV,4,3,13,14,80,147,,22,64,030,,24,13,046,,31,03,170,*73
1354234714251000000;rawNmea;$GPGSV,4,4,13,32,10,268,*47
1354234714255000000;rawNmea;$GPGGA,001833.0,3752.508600,N,12215.509127,W,1,02,500.0,132.8,M,-26.0,M,,*64
1354234714258000000;rawNmea;$GPVTG,307.6,T,307.6,M,0.0,N,0.0,K,A*23
1354234714261000000;rawNmea;$GPRMC,001833.0,A,3752.508600,N,12215.509127,W,0.0,307.6,301112,,,A*72
1354234714263000000;rawNmea;$GPGSA,A,3,06,21,,,,,,,,,,,500.0,500.0,500.0*32
1354234713000000000;latLngE7Gps;378751433 -1222584854 100.0 -1.0 0.0
1354234714330938343;accel/kr3dh;-0.35412905 0.7354988 9.80665 3
1354234714330938343;compass/AK8973 Magnetic Field;14.9375 18.5 25.75 3
1354234714330938343;linaccel/Linear Acceleration Sensor;0.006242007 0.032003462 0.08318138 3
1354234714330908343;orientation/AK8973 Compass;316.9375 -4.28125 -2.0625 1
1354234714428808343;compass/AK8973 Magnetic Field;14.6875 18.5 25.75 3
1354234714428777343;accel/kr3dh;-0.29964766 0.7627395 9.765789 3
1354234714428777343;linaccel/Linear Acceleration Sensor;0.05946216 0.06525266 0.011098862 3
1354234714428747343;orientation/AK8973 Compass;316.92188 -4.453125 -1.765625 1
1354234714529272343;compass/AK8973 Magnetic Field;14.6875 18.0 25.75 3
1354234714529241343;accel/kr3dh;-0.3405087 0.6537767 9.820271 3
1354234714529241343;linaccel/Linear Acceleration Sensor;0.009715438 -0.049993932 0.040397644 3
1354234714529180343;orientation/AK8973 Compass;316.875 -3.8125 -1.984375 1
1354234714627081343;compass/AK8973 Magnetic Field;14.6875 17.1875 25.75 3
1354234714627050343;accel/kr3dh;-0.38136974 0.7082581 9.833891 3
1354234714627050343;linaccel/Linear Acceleration Sensor;-0.04276994 -0.0060147047 0.039964676 3
1354234714627020343;orientation/AK8973 Compass;316.71875 -4.109375 -2.21875 1
1354234714723577343;compass/AK8973 Magnetic Field;14.1875 17.4375 25.5 3
1354234714723516343;accel/kr3dh;-0.35412905 0.7627395 9.861132 3
1354234714723516343;linaccel/Linear Acceleration Sensor;-0.02106753 0.044555724 0.057824135 3
1354234714723486343;orientation/AK8973 Compass;316.65625 -4.421875 -2.046875 1
1354234714842779785;wifi;00:23:04:89:cd:b2,UNKNOWN,-73 00:22:90:39:07:12,UNKNOWN,-74 00:17:df:a7:33:12,UNKNOWN,-77 00:17:df:a8:60:62,UNKNOWN,-80 b8:c7:5d:08:bd:fd,UNKNOWN,-83 00:17:df:a7:4c:f2,UNKNOWN,-87 00:22:90:39:07:15,UNKNOWN,-80 00:17:df:a8:60:65,UNKNOWN,-80 00:17:df:a7:33:15,UNKNOWN,-77 00:17:df:a7:4c:f5,UNKNOWN,-87 00:22:90:39:b5:b5,UNKNOWN,-92 00:23:04:89:cd:b1,UNKNOWN,-74 00:22:90:39:07:11,UNKNOWN,-74 00:17:df:a7:33:11,UNKNOWN,-76 00:17:df:a7:33:16,UNKNOWN,-76 00:23:04:89:cd:b0,UNKNOWN,-77 00:17:df:a7:33:10,UNKNOWN,-77 00:17:df:a8:60:60,UNKNOWN,-78 00:22:90:39:07:16,UNKNOWN,-80 00:22:90:39:07:10,UNKNOWN,-80 00:17:df:a8:60:61,UNKNOWN,-80 00:17:df:a8:60:66,UNKNOWN,-80 00:22:90:39:65:b1,UNKNOWN,-85 00:17:df:a7:4c:f0,UNKNOWN,-85 00:17:df:a7:4c:f1,UNKNOWN,-86 00:22:90:39:65:b0,UNKNOWN,-89 00:22:90:39:b5:b1,UNKNOWN,-93 
1354234714827673343;compass/AK8973 Magnetic Field;13.875 17.4375 26.0 3
1354234714827642343;accel/kr3dh;-0.32688835 0.7354988 9.765789 3
1354234714827642343;linaccel/Linear Acceleration Sensor;0.011657745 0.01871097 -0.049224854 3
1354234714827581343;orientation/AK8973 Compass;316.64063 -4.3125 -1.90625 1
1354234714847000000;latLngE7Network;378754407 -1222587813 50.0 -1.0 -1.0
1354234714920721343;orientation/AK8973 Compass;316.57813 -3.96875 -2.234375 1
1354234714920721343;accel/kr3dh;-0.38136974 0.6810174 9.765789 3
1354234714920721343;compass/AK8973 Magnetic Field;14.4375 17.6875 26.0 3
1354234714920721343;linaccel/Linear Acceleration Sensor;-0.034232885 -0.038086057 -0.05759716 3
1354234715015508343;compass/AK8973 Magnetic Field;14.1875 18.25 26.25 3
1354234715015478343;accel/kr3dh;-0.32688835 0.7354988 9.80665 3
1354234715015478343;linaccel/Linear Acceleration Sensor;0.02629894 0.01143831 -0.0144023895 3
1354234715015417343;orientation/AK8973 Compass;316.60938 -4.28125 -1.90625 1
1354234715109838343;accel/kr3dh;-0.35412905 0.667397 9.833891 3
1354234715109838343;compass/AK8973 Magnetic Field;14.6875 18.0 26.25 3
1354234715109838343;linaccel/Linear Acceleration Sensor;7.610619E-4 -0.057191253 0.024992943 3
1354234715109808343;orientation/AK8973 Compass;316.57813 -3.890625 -2.0625 1
1354234715204473343;compass/AK8973 Magnetic Field;14.6875 18.25 26.25 3
1354234715204443343;accel/kr3dh;-0.32688835 0.6946377 9.629586 3
1354234715204443343;linaccel/Linear Acceleration Sensor;0.02609536 -0.023549497 -0.16608143 3
1354234715204382343;orientation/AK8973 Compass;316.5625 -4.109375 -1.9375 1
1354234715241000000;rawNmea;$GPGSV,4,1,13,03,32,239,24,06,31,219,19,18,32,068,27,19,42,272,28*74
1354234715242000000;rawNmea;$GPGSV,4,2,13,21,16,129,15,01,03,312,,09,09,039,,11,18,310,*74
1354234715245000000;rawNmea;$GPGSV,4,3,13,14,80,147,,22,64,030,,24,13,046,,31,03,170,*73
1354234715247000000;rawNmea;$GPGSV,4,4,13,32,10,268,*47
1354234715252000000;rawNmea;$GPGGA,001834.0,,,,,0,,,,,,,,*76
1354234715257000000;rawNmea;$GPVTG,,T,,M,,N,,K,N*2C
1354234715262000000;rawNmea;$GPRMC,,V,,,,,,,,,,N*53
1354234715267000000;rawNmea;$GPGSA,A,1,,,,,,,,,,,,,,,*1E
1354234715299536343;compass/AK8973 Magnetic Field;14.4375 18.25 26.75 3
1354234715299505343;accel/kr3dh;-0.25878662 0.6946377 9.79303 3
1354234715299505343;linaccel/Linear Acceleration Sensor;0.08853084 -0.012643158 0.010286331 3
1354234715299475343;orientation/AK8973 Compass;316.59375 -4.0625 -1.515625 1
1354234715396704343;accel/kr3dh;-0.3949901 0.7354988 9.765789 3
1354234715396704343;linaccel/Linear Acceleration Sensor;-0.058039427 0.038398743 -1.2397766E-5 3
1354234715396642343;orientation/AK8973 Compass;316.5625 -4.3125 -2.328125 1
1354234715491308343;accel/kr3dh;-0.38136974 0.7082581 9.765789 3
1354234715491308343;compass/AK8973 Magnetic Field;13.875 18.25 27.0 3
1354234715491308343;linaccel/Linear Acceleration Sensor;-0.05414179 0.014316678 0.014673233 3
1354234715491277343;orientation/AK8973 Compass;316.625 -4.140625 -2.234375 1
1354234715584875343;accel/kr3dh;-0.3405087 0.81722087 9.697687 3
1354234715584875343;compass/AK8973 Magnetic Field;14.6875 18.25 27.25 3
1354234715584875343;linaccel/Linear Acceleration Sensor;-0.013072193 0.1169042 -0.048247337 3
1354234715584844343;orientation/AK8973 Compass;316.54688 -4.8125 -2.015625 1
1354234715678106343;compass/AK8973 Magnetic Field;14.4375 18.5 27.0 3
1354234715678076343;orientation/AK8973 Compass;316.5625 -4.34375 -2.09375 1
1354234715678076343;accel/kr3dh;-0.35412905 0.7354988 9.684067 3
1354234715678076343;linaccel/Linear Acceleration Sensor;-0.015202582 0.019819558 -0.061621666 3
1354234715696692140;wifi;00:22:90:39:07:12,UNKNOWN,-75 00:17:df:a8:60:62,UNKNOWN,-83 b8:c7:5d:08:bd:fd,UNKNOWN,-83 00:22:90:39:65:b2,UNKNOWN,-84 00:17:df:a7:4c:f2,UNKNOWN,-85 00:23:04:89:c3:d2,UNKNOWN,-95 00:17:df:a8:60:65,UNKNOWN,-81 00:22:90:39:07:15,UNKNOWN,-82 00:22:90:39:65:b5,UNKNOWN,-84 00:17:df:a7:33:15,UNKNOWN,-82 00:23:04:89:c3:d5,UNKNOWN,-96 00:22:90:39:07:11,UNKNOWN,-74 00:17:df:a7:33:10,UNKNOWN,-76 00:17:df:a7:33:11,UNKNOWN,-78 00:17:df:a8:60:66,UNKNOWN,-80 00:17:df:a7:33:16,UNKNOWN,-80 00:17:df:a8:60:61,UNKNOWN,-81 00:22:90:39:07:16,UNKNOWN,-82 00:22:90:39:07:10,UNKNOWN,-82 00:22:90:39:65:b6,UNKNOWN,-84 00:17:df:a7:4c:f0,UNKNOWN,-87 00:23:04:89:c3:d6,UNKNOWN,-96 
1354234715779577343;orientation/AK8973 Compass;316.57813 -3.609375 -2.265625 1
1354234715779577343;accel/kr3dh;-0.38136974 0.61291564 9.670447 3
1354234715779577343;compass/AK8973 Magnetic Field;14.6875 18.5 26.75 3
1354234715779577343;linaccel/Linear Acceleration Sensor;-0.02754724 -0.12253505 -0.06752586 3
1354234715874517343;compass/AK8973 Magnetic Field;14.9375 19.0 27.0 3
1354234715874456343;accel/kr3dh;-0.29964766 0.7354988 9.765789 3
1354234715874456343;linaccel/Linear Acceleration Sensor;0.061914176 -0.0068914294 0.04472637 3
1354234715874426343;orientation/AK8973 Compass;316.60938 -4.3125 -1.765625 1
1354234715977239343;compass/AK8973 Magnetic Field;14.6875 19.0 26.25 3
1354234715977209343;accel/kr3dh;-0.313268 0.7627395 9.765789 3
1354234715977209343;linaccel/Linear Acceleration Sensor;0.04604709 0.033142567 0.060791016 3
1354234715977178343;orientation/AK8973 Compass;316.65625 -4.453125 -1.8125 1
1354234716074926343;compass/AK8973 Magnetic Field;14.4375 18.5 25.75 3
1354234716074896343;accel/kr3dh;-0.313268 0.6537767 9.765789 3
1354234716074896343;linaccel/Linear Acceleration Sensor;0.034617364 -0.06011516 0.058945656 3
1354234716074865343;orientation/AK8973 Compass;316.71875 -3.84375 -1.84375 1
1354234716171636343;accel/kr3dh;-0.44947147 0.6810174 9.779409 3
1354234716171636343;linaccel/Linear Acceleration Sensor;-0.11601916 -0.025183678 0.053142548 3
1354234716171606343;orientation/AK8973 Compass;316.73438 -3.96875 -2.625 1
1354234716238000000;rawNmea;$GPGSV,4,1,13,03,32,239,24,06,31,219,19,18,32,068,27,19,42,272,28*74
1354234716243000000;rawNmea;$GPGSV,4,2,13,21,16,129,15,01,03,312,,09,09,039,,11,18,310,*74
1354234716245000000;rawNmea;$GPGSV,4,3,13,14,80,147,,22,64,030,,24,13,046,,31,03,170,*73
1354234716248000000;rawNmea;$GPGSV,4,4,13,32,10,268,*47
1354234716254000000;rawNmea;$GPGGA,001835.0,3752.508602,N,12215.509127,W,1,02,500.0,132.8,M,-26.0,M,,*60
1354234716256000000;rawNmea;$GPVTG,307.6,T,307.6,M,0.0,N,0.0,K,A*23
1354234716258000000;rawNmea;$GPRMC,001835.0,A,3752.508602,N,12215.509127,W,0.0,307.6,301112,,,A*76
1354234716261000000;rawNmea;$GPGSA,A,3,03,06,,,,,,,,,,,500.0,500.0,500.0*32
1354234716264868343;orientation/AK8973 Compass;316.73438 -4.171875 -2.234375 1
1354234716264868343;accel/kr3dh;-0.38136974 0.7082581 9.670447 3
1354234716264868343;compass/AK8973 Magnetic Field;14.6875 18.5 25.5 3
1354234716264868343;linaccel/Linear Acceleration Sensor;-0.05196747 0.0060239434 -0.078289986 3
1354234715000000000;latLngE7Gps;378751433 -1222584854 123.0 -1.0 0.0
1354234716360388343;compass/AK8973 Magnetic Field;14.6875 18.0 25.75 3
1354234716360357343;accel/kr3dh;-0.313268 0.7082581 9.765789 3
1354234716360357343;linaccel/Linear Acceleration Sensor;0.029355884 0.011115372 0.0051574707 3
1354234716360327343;orientation/AK8973 Compass;316.6875 -4.140625 -1.8125 1
1354234716457495343;compass/AK8973 Magnetic Field;15.1875 18.0 25.75 3
1354234716457464343;accel/kr3dh;-0.32688835 0.8036005 9.765789 3
1354234716457464343;linaccel/Linear Acceleration Sensor;0.03456831 0.10810286 0.0088377 3
1354234716457433343;orientation/AK8973 Compass;316.5625 -4.703125 -1.90625 1
1354234716523260742;wifi;00:17:df:a7:33:12,UNKNOWN,-76 00:23:04:89:cd:b2,UNKNOWN,-79 00:22:90:39:07:12,UNKNOWN,-80 00:17:df:a8:60:62,UNKNOWN,-82 00:17:df:a7:4c:f2,UNKNOWN,-88 28:cf:da:b8:1e:d5,UNKNOWN,-90 00:22:90:39:07:15,UNKNOWN,-74 00:17:df:a7:33:15,UNKNOWN,-77 00:22:90:39:65:b5,UNKNOWN,-84 00:23:04:89:cd:b0,UNKNOWN,-73 00:22:90:39:07:10,UNKNOWN,-74 00:22:90:39:07:16,UNKNOWN,-74 00:13:5f:55:d8:b0,UNKNOWN,-75 00:17:df:a7:33:11,UNKNOWN,-76 00:17:df:a7:33:10,UNKNOWN,-77 00:17:df:a7:33:16,UNKNOWN,-77 00:23:04:89:cd:b6,UNKNOWN,-78 00:23:04:89:cd:b1,UNKNOWN,-78 00:22:90:39:07:11,UNKNOWN,-80 00:22:90:39:65:b6,UNKNOWN,-84 00:22:90:39:65:b1,UNKNOWN,-88 00:17:df:a7:4c:f1,UNKNOWN,-90 00:22:90:39:b5:b1,UNKNOWN,-91 00:22:90:39:b5:b6,UNKNOWN,-92 00:23:04:89:bb:f0,UNKNOWN,-95 
1354234716556219343;accel/kr3dh;-0.35412905 0.667397 9.765789 3
1354234716556219343;compass/AK8973 Magnetic Field;15.4375 18.25 26.0 3
1354234716556219343;linaccel/Linear Acceleration Sensor;0.013114989 -0.03666985 0.017957687 3
1354234716556188343;orientation/AK8973 Compass;316.46875 -3.921875 -2.0625 1
1354234716650762343;compass/AK8973 Magnetic Field;15.4375 18.0 26.0 3
1354234716650732343;orientation/AK8973 Compass;316.32813 -4.140625 -2.234375 1
1354234716650732343;accel/kr3dh;-0.38136974 0.7082581 9.765789 3
1354234716650732343;linaccel/Linear Acceleration Sensor;-0.02230075 -0.009943306 0.019970894 3
1354234716745764343;orientation/AK8973 Compass;316.1875 -4.765625 -1.84375 1
1354234716745764343;accel/kr3dh;-0.313268 0.8036005 9.670447 3
1354234716745764343;compass/AK8973 Magnetic Field;15.6875 18.25 26.0 3
1354234716745764343;linaccel/Linear Acceleration Sensor;0.03565821 0.07545537 -0.080117226 3
1354234716839300343;orientation/AK8973 Compass;316.125 -4.3125 -1.8125 1
1354234716839300343;accel/kr3dh;-0.313268 0.7354988 9.765789 3
1354234716839300343;compass/AK8973 Magnetic Field;15.6875 18.75 26.5 3
1354234716839300343;linaccel/Linear Acceleration Sensor;0.030957848 0.003355503 0.01317215 3
1354234716932806343;accel/kr3dh;-0.27240697 0.7354988 9.833891 3
1354234716932806343;compass/AK8973 Magnetic Field;15.4375 19.0 26.0 3
1354234716932806343;linaccel/Linear Acceleration Sensor;0.067953765 -0.0013498068 0.08560848 3
1354234716932775343;orientation/AK8973 Compass;316.14063 -4.28125 -1.59375 1
1354234717035803343;compass/AK8973 Magnetic Field;14.6875 18.5 25.75 3
1354234717035772343;accel/kr3dh;-0.35412905 0.7218784 9.765789 3
1354234717035772343;linaccel/Linear Acceleration Sensor;-0.024225622 -0.021654129 0.018647194 3
1354234717035711343;orientation/AK8973 Compass;316.17188 -4.234375 -2.0625 1
1354234717135381343;compass/AK8973 Magnetic Field;14.4375 18.5 25.25 3
1354234717135351343;accel/kr3dh;-0.32688835 0.7082581 9.765789 3
1354234717135351343;linaccel/Linear Acceleration Sensor;-0.0092847645 -0.036310375 0.007204056 3
1354234717135290343;orientation/AK8973 Compass;316.25 -4.140625 -1.90625 1
1354234717231878343;compass/AK8973 Magnetic Field;14.1875 18.25 24.6875 3
1354234717231848343;orientation/AK8973 Compass;316.29688 -4.28125 -2.375 1
1354234717231848343;accel/kr3dh;-0.40861043 0.7354988 9.779409 3
1354234717231848343;linaccel/Linear Acceleration Sensor;-0.09497073 -0.002637744 0.005288124 3
1354234717239000000;rawNmea;$GPGSV,4,1,13,03,32,239,24,06,31,219,19,18,32,068,27,19,42,272,28*74
1354234717246000000;rawNmea;$GPGSV,4,2,13,21,16,129,15,01,03,312,,09,09,039,,11,18,310,*74
1354234717252000000;rawNmea;$GPGSV,4,3,13,14,80,147,,22,64,030,,24,13,046,,31,03,170,*73
1354234717258000000;rawNmea;$GPGSV,4,4,13,32,10,268,*47
1354234717272000000;rawNmea;$GPGGA,001836.0,3752.508602,N,12215.509127,W,1,02,500.0,132.8,M,-26.0,M,,*63
1354234717279000000;rawNmea;$GPVTG,307.6,T,307.6,M,0.0,N,0.0,K,A*23
1354234717286000000;rawNmea;$GPRMC,001836.0,A,3752.508602,N,12215.509127,W,0.0,307.6,301112,,,A*75
1354234717292000000;rawNmea;$GPGSA,A,3,03,06,,,,,,,,,,,500.0,500.0,500.0*32
1354234717354986817;wifi;00:22:90:39:07:12,UNKNOWN,-74 00:23:04:89:cd:b2,UNKNOWN,-75 00:17:df:a7:33:12,UNKNOWN,-76 00:17:df:a8:60:62,UNKNOWN,-79 00:17:df:a7:4c:f2,UNKNOWN,-86 00:23:04:89:cd:b5,UNKNOWN,-75 00:17:df:a7:33:15,UNKNOWN,-76 00:22:90:39:07:15,UNKNOWN,-78 00:17:df:a8:60:65,UNKNOWN,-79 00:22:90:39:65:b5,UNKNOWN,-84 00:17:df:a7:4c:f5,UNKNOWN,-86 00:22:90:39:b5:b5,UNKNOWN,-92 00:23:04:89:c3:d5,UNKNOWN,-94 00:23:04:89:cd:b0,UNKNOWN,-73 00:22:90:39:07:16,UNKNOWN,-74 00:23:04:89:cd:b6,UNKNOWN,-74 00:22:90:39:07:11,UNKNOWN,-74 00:22:90:39:07:10,UNKNOWN,-75 00:17:df:a7:33:16,UNKNOWN,-76 00:17:df:a7:33:10,UNKNOWN,-77 00:17:df:a7:33:11,UNKNOWN,-77 00:17:df:a8:60:60,UNKNOWN,-80 00:17:df:a8:60:66,UNKNOWN,-80 00:17:df:a8:60:61,UNKNOWN,-80 00:22:90:39:65:b1,UNKNOWN,-82 00:22:90:39:65:b6,UNKNOWN,-82 00:22:90:39:65:b0,UNKNOWN,-84 00:17:df:a7:4c:f1,UNKNOWN,-88 00:23:04:89:c3:d6,UNKNOWN,-93 00:23:04:89:c3:d0,UNKNOWN,-94 
1354234717331976343;compass/AK8973 Magnetic Field;14.1875 18.0 24.9375 3
1354234717331945343;accel/kr3dh;-0.35412905 0.6537767 9.670447 3
1354234717331945343;linaccel/Linear Acceleration Sensor;-0.029744416 -0.07342023 -0.11053276 3
1354234717331884343;orientation/AK8973 Compass;316.34375 -3.859375 -2.09375 1
1354234716000000000;latLngE7Gps;378751433 -1222584854 135.0 -1.0 0.0
1354234717425207343;orientation/AK8973 Compass;316.375 -4.28125 -2.15625 1
1354234717425207343;accel/kr3dh;-0.3677494 0.7354988 9.80665 3
1354234717425207343;compass/AK8973 Magnetic Field;14.4375 18.25 24.9375 3
1354234717425207343;linaccel/Linear Acceleration Sensor;-0.024329126 0.019070983 0.032082558 3
1354234717520849343;compass/AK8973 Magnetic Field;14.1875 18.5 25.5 3
1354234717520818343;orientation/AK8973 Compass;316.46875 -4.140625 -1.8125 1
1354234717520818343;accel/kr3dh;-0.313268 0.7082581 9.765789 3
1354234717520818343;linaccel/Linear Acceleration Sensor;0.048138976 0.0011252761 0.0056085587 3
1354234717616583343;compass/AK8973 Magnetic Field;13.875 18.25 26.25 3
1354234717616522343;accel/kr3dh;-0.38136974 0.7627395 9.80665 3
1354234717616522343;linaccel/Linear Acceleration Sensor;-0.013097554 0.059455335 0.05522728 3
1354234717616491343;orientation/AK8973 Compass;316.53125 -4.453125 -2.21875 1
1354234717712805343;accel/kr3dh;-0.32688835 0.7354988 9.765789 3
1354234717712805343;compass/AK8973 Magnetic Field;13.875 18.0 26.0 3
1354234717712805343;linaccel/Linear Acceleration Sensor;0.036848634 0.027081132 0.009822845 3
1354234717712774343;orientation/AK8973 Compass;316.57813 -4.3125 -1.90625 1
1354234717811071343;accel/kr3dh;-0.38136974 0.667397 9.779409 3
1354234717811071343;compass/AK8973 Magnetic Field;13.875 18.25 26.25 3
1354234717811071343;linaccel/Linear Acceleration Sensor;-0.025996953 -0.052559853 0.010356903 3
1354234717811041343;orientation/AK8973 Compass;316.65625 -3.890625 -2.234375 1
1354234717905889343;compass/AK8973 Magnetic Field;13.875 17.6875 26.25 3
1354234717905859343;accel/kr3dh;-0.38136974 0.7627395 9.765789 3
1354234717905859343;linaccel/Linear Acceleration Sensor;-0.030186802 0.0344826 -0.013803482 3
1354234717905798343;orientation/AK8973 Compass;316.64063 -4.453125 -2.234375 1
1354234718002325343;orientation/AK8973 Compass;316.60938 -4.34375 -1.65625 1
1354234718002325343;accel/kr3dh;-0.2860273 0.7491191 9.874752 3
1354234718002325343;compass/AK8973 Magnetic Field;14.6875 18.0 25.75 3
1354234718002325343;linaccel/Linear Acceleration Sensor;0.06691682 0.019849837 0.09055233 3
1354234718127569824;wifi;00:23:04:89:cd:b2,UNKNOWN,-74 00:17:df:a7:33:12,UNKNOWN,-77 00:17:df:a8:60:62,UNKNOWN,-79 00:22:90:39:07:12,UNKNOWN,-80 00:17:df:a7:4c:f2,UNKNOWN,-86 00:22:90:39:07:15,UNKNOWN,-74 00:23:04:89:cd:b5,UNKNOWN,-76 00:17:df:a8:60:65,UNKNOWN,-80 00:17:df:a7:33:15,UNKNOWN,-76 00:22:90:39:07:16,UNKNOWN,-75 00:22:90:39:07:10,UNKNOWN,-75 00:22:90:39:07:11,UNKNOWN,-75 00:23:04:89:cd:b6,UNKNOWN,-76 00:17:df:a7:33:11,UNKNOWN,-76 00:17:df:a8:60:61,UNKNOWN,-77 00:23:04:89:cd:b0,UNKNOWN,-77 00:17:df:a7:33:16,UNKNOWN,-78 00:17:df:a8:60:60,UNKNOWN,-78 00:17:df:a7:33:10,UNKNOWN,-78 00:17:df:a8:60:66,UNKNOWN,-80 00:17:df:a7:4c:f1,UNKNOWN,-84 00:22:90:39:65:b1,UNKNOWN,-85 00:22:90:39:65:b6,UNKNOWN,-85 00:17:df:a7:4c:f6,UNKNOWN,-91 
1354234718117224343;compass/AK8973 Magnetic Field;14.4375 18.0 26.0 3
1354234718117193343;accel/kr3dh;-0.32688835 0.7082581 9.779409 3
1354234718117193343;linaccel/Linear Acceleration Sensor;0.027028471 -0.019975305 -0.010540009 3
1354234718117132343;orientation/AK8973 Compass;316.59375 -4.140625 -1.90625 1
1354234718225134343;compass/AK8973 Magnetic Field;14.6875 17.4375 26.0 3
1354234718225103343;orientation/AK8973 Compass;316.46875 -4.484375 -2.078125 1
1354234718225103343;accel/kr3dh;-0.35412905 0.7627395 9.724928 3
1354234718225103343;linaccel/Linear Acceleration Sensor;-0.009455085 0.031242788 -0.07487583 3
1354234718242000000;rawNmea;$GPGSV,4,1,13,03,32,239,25,06,31,219,19,18,32,068,27,19,42,272,28*75
1354234718250000000;rawNmea;$GPGSV,4,2,13,21,16,129,15,01,03,312,,09,09,039,,11,18,310,*74
1354234718255000000;rawNmea;$GPGSV,4,3,13,14,80,147,,22,64,030,,24,13,046,,31,03,170,*73
1354234718263000000;rawNmea;$GPGSV,4,4,13,32,10,268,*47
1354234718277000000;rawNmea;$GPGGA,001837.0,3752.508600,N,12215.509128,W,1,02,500.0,132.8,M,-26.0,M,,*6F
1354234718284000000;rawNmea;$GPVTG,307.6,T,307.6,M,0.0,N,0.0,K,A*23
1354234718290000000;rawNmea;$GPRMC,001837.0,A,3752.508600,N,12215.509128,W,0.0,307.6,301112,,,A*79
1354234718297000000;rawNmea;$GPGSA,A,3,03,06,,,,,,,,,,,500.0,500.0,500.0*32
1354234718319036343;compass/AK8973 Magnetic Field;14.9375 18.0 25.5 3
1354234718318975343;accel/kr3dh;-0.29964766 0.7082581 9.80665 3
1354234718318975343;linaccel/Linear Acceleration Sensor;0.033127666 -0.026783884 0.0033540726 3
1354234718318945343;orientation/AK8973 Compass;316.42188 -4.109375 -1.734375 1
1354234717000000000;latLngE7Gps;378751433 -1222584854 147.0 -1.0 0.0
1354234718411108343;accel/kr3dh;-0.313268 0.7354988 9.697687 3
1354234718411108343;compass/AK8973 Magnetic Field;14.6875 18.25 25.25 3
1354234718411108343;linaccel/Linear Acceleration Sensor;0.011146158 -8.678436E-4 -0.09729862 3
1354234718411077343;orientation/AK8973 Compass;316.42188 -4.34375 -1.84375 1
1354234718506475343;compass/AK8973 Magnetic Field;14.6875 18.5 25.5 3
1354234718506414343;accel/kr3dh;-0.47671217 0.6946377 9.765789 3
1354234718506414343;linaccel/Linear Acceleration Sensor;-0.15442958 -0.039773047 -0.011912346 3
1354234718506384343;orientation/AK8973 Compass;316.40625 -4.0625 -2.796875 1
1354234718607305343;compass/AK8973 Magnetic Field;14.6875 19.0 25.5 3
1354234718607275343;orientation/AK8973 Compass;316.46875 -4.3125 -2.15625 1
1354234718607275343;accel/kr3dh;-0.3677494 0.7354988 9.724928 3
1354234718607275343;linaccel/Linear Acceleration Sensor;-0.035571665 0.006707549 -0.033269882 3
1354234718702368343;accel/kr3dh;-0.29964766 0.7354988 9.765789 3
1354234718702368343;compass/AK8973 Magnetic Field;14.4375 18.75 25.75 3
1354234718702368343;linaccel/Linear Acceleration Sensor;0.053710014 0.01274693 0.021390915 3
1354234718702337343;orientation/AK8973 Compass;316.54688 -4.3125 -1.765625 1
1354234718801855343;compass/AK8973 Magnetic Field;14.1875 18.75 25.75 3
1354234718801824343;accel/kr3dh;-0.35412905 0.7627395 9.861132 3
1354234718801824343;linaccel/Linear Acceleration Sensor;0.018964976 0.04211837 0.1204977 3
1354234718801763343;orientation/AK8973 Compass;316.625 -4.421875 -2.046875 1
1354234718913763670;wifi;00:17:df:a7:33:12,UNKNOWN,-75 00:22:90:39:07:12,UNKNOWN,-77 00:22:90:39:65:b2,UNKNOWN,-80 00:17:df:a8:60:62,UNKNOWN,-82 00:23:04:89:cd:b2,UNKNOWN,-82 00:17:df:a8:60:65,UNKNOWN,-81 00:17:df:a7:33:15,UNKNOWN,-82 00:23:04:89:cd:b0,UNKNOWN,-74 00:23:04:89:cd:b6,UNKNOWN,-74 00:13:5f:55:d8:b0,UNKNOWN,-75 00:17:df:a7:33:11,UNKNOWN,-75 00:22:90:39:07:11,UNKNOWN,-76 00:23:04:89:cd:b1,UNKNOWN,-79 00:17:df:a8:60:66,UNKNOWN,-80 00:17:df:a8:60:60,UNKNOWN,-81 00:17:df:a8:60:61,UNKNOWN,-81 00:22:90:39:07:10,UNKNOWN,-81 00:22:90:39:07:16,UNKNOWN,-81 00:17:df:a7:33:10,UNKNOWN,-81 00:17:df:a7:33:16,UNKNOWN,-81 00:22:90:39:65:b1,UNKNOWN,-82 00:22:90:39:65:b6,UNKNOWN,-83 00:17:df:a7:4c:f0,UNKNOWN,-88 00:17:df:a7:4c:f1,UNKNOWN,-92 00:22:90:39:b5:b6,UNKNOWN,-93 00:23:04:89:c3:d6,UNKNOWN,-94 
1354234718900366343;compass/AK8973 Magnetic Field;14.4375 18.5 25.75 3
1354234718900335343;accel/kr3dh;-0.3949901 0.7627395 9.779409 3
1354234718900335343;linaccel/Linear Acceleration Sensor;-0.02005583 0.036628127 0.02799511 3
1354234718900305343;orientation/AK8973 Compass;316.64063 -4.453125 -2.296875 1
1354234718995489343;orientation/AK8973 Compass;316.67188 -4.34375 -2.15625 1
1354234718995489343;accel/kr3dh;-0.3677494 0.7354988 9.697687 3
1354234718995489343;compass/AK8973 Magnetic Field;14.6875 18.75 25.25 3
1354234718995489343;linaccel/Linear Acceleration Sensor;-0.0020503402 -0.0016978979 -0.07405472 3
1354234719088110343;orientation/AK8973 Compass;316.6875 -4.34375 -2.15625 1
1354234719180486343;compass/AK8973 Magnetic Field;14.9375 18.75 25.5 3
1354234719180456343;orientation/AK8973 Compass;316.6875 -4.25 -2.15625 1
1354234719180456343;accel/kr3dh;-0.3677494 0.7218784 9.697687 3
1354234719180456343;linaccel/Linear Acceleration Sensor;-0.008446574 -0.03283894 -0.07472134 3
1354234719244000000;rawNmea;$GPGSV,4,1,13,03,32,239,25,06,31,219,19,18,32,068,27,19,42,272,28*75
1354234719248000000;rawNmea;$GPGSV,4,2,13,21,16,129,15,01,03,312,,09,09,039,,11,18,310,*74
1354234719249000000;rawNmea;$GPGSV,4,3,13,14,80,147,,22,64,030,,24,13,046,,31,03,170,*73
1354234719251000000;rawNmea;$GPGSV,4,4,13,32,10,268,*47
1354234719263000000;rawNmea;$GPGGA,001838.0,3752.508599,N,12215.509128,W,1,02,500.0,132.8,M,-26.0,M,,*63
1354234719278967343;compass/AK8973 Magnetic Field;14.6875 19.25 24.9375 3
1354234719278936343;accel/kr3dh;-0.313268 0.7491191 9.765789 3
1354234719278936343;linaccel/Linear Acceleration Sensor;0.052035928 -0.0017299056 0.02440834 3
1354234719278906343;orientation/AK8973 Compass;316.78125 -4.390625 -1.8125 1
1354234719270000000;rawNmea;$GPVTG,307.6,T,307.6,M,0.0,N,0.0,K,A*23
1354234719293000000;rawNmea;$GPRMC,001838.0,A,3752.508599,N,12215.509128,W,0.0,307.6,301112,,,A*75
1354234719295000000;rawNmea;$GPGSA,A,3,03,06,,,,,,,,,,,500.0,500.0,500.0*32
1354234718000000000;latLngE7Gps;378751433 -1222584854 161.0 -1.0 0.0
1354234719376318343;orientation/AK8973 Compass;316.85938 -3.640625 -1.65625 1
1354234719376318343;accel/kr3dh;-0.2860273 0.626536 9.833891 3
1354234719376318343;compass/AK8973 Magnetic Field;14.4375 18.5 25.5 3
1354234719376318343;linaccel/Linear Acceleration Sensor;0.08280623 -0.11081183 0.12884998 3
1354234719469793343;accel/kr3dh;-0.35412905 0.7354988 9.765789 3
1354234719469793343;compass/AK8973 Magnetic Field;14.1875 18.25 25.25 3
1354234719469793343;linaccel/Linear Acceleration Sensor;0.00497061 0.012626946 0.06592178 3
1354234719469763343;orientation/AK8973 Compass;316.875 -4.3125 -2.0625 1
1354234719564642343;compass/AK8973 Magnetic Field;13.875 18.25 25.25 3
1354234719564611343;accel/kr3dh;-0.3677494 0.8036005 9.833891 3
1354234719564611343;linaccel/Linear Acceleration Sensor;-0.027079225 0.09335011 0.105789185 3
1354234719564581343;orientation/AK8973 Compass;316.90625 -4.671875 -2.125 1
1354234719666387343;compass/AK8973 Magnetic Field;13.875 17.6875 25.75 3
1354234719666357343;accel/kr3dh;-0.3677494 0.7354988 9.861132 3
1354234719666357343;linaccel/Linear Acceleration Sensor;-0.039048165 0.026856184 0.08895683 3
1354234719666326343;orientation/AK8973 Compass;316.89063 -4.25 -2.125 1
1354234719711950926;wifi;00:22:90:39:07:12,UNKNOWN,-74 00:17:df:a7:33:12,UNKNOWN,-81 00:17:df:a8:60:62,UNKNOWN,-81 28:cf:da:b8:1e:d5,UNKNOWN,-89 00:22:90:39:07:15,UNKNOWN,-80 00:17:df:a7:33:15,UNKNOWN,-76 00:17:df:a8:60:65,UNKNOWN,-81 00:22:90:39:07:11,UNKNOWN,-73 00:23:04:89:cd:b6,UNKNOWN,-73 00:22:90:39:07:10,UNKNOWN,-74 00:13:5f:55:d8:b0,UNKNOWN,-76 00:23:04:89:cd:b0,UNKNOWN,-77 00:17:df:a8:60:60,UNKNOWN,-78 00:17:df:a7:33:16,UNKNOWN,-78 00:17:df:a7:33:10,UNKNOWN,-79 00:17:df:a8:60:61,UNKNOWN,-80 00:17:df:a8:60:66,UNKNOWN,-80 00:17:df:a7:4c:f0,UNKNOWN,-89 
1354234719763037343;accel/kr3dh;-0.38136974 0.7082581 9.697687 3
1354234719763037343;compass/AK8973 Magnetic Field;13.875 18.25 25.5 3
1354234719763037343;linaccel/Linear Acceleration Sensor;-0.048089206 -0.013694167 -0.1084404 3
1354234719763006343;orientation/AK8973 Compass;316.9375 -4.171875 -2.234375 1
1354234719858495343;compass/AK8973 Magnetic Field;14.1875 18.25 25.75 3
1354234719858465343;accel/kr3dh;-0.29964766 0.6401563 9.80665 3
1354234719858465343;linaccel/Linear Acceleration Sensor;0.048263818 -0.09697926 -0.013843536 3
1354234719858434343;orientation/AK8973 Compass;317.0 -3.71875 -1.734375 1
1354234719954778343;orientation/AK8973 Compass;316.95313 -4.421875 -1.9375 1
1354234719954778343;accel/kr3dh;-0.32688835 0.7491191 9.697687 3
1354234719954778343;compass/AK8973 Magnetic Field;14.1875 17.6875 25.5 3
1354234719954778343;linaccel/Linear Acceleration Sensor;0.031942487 0.011718988 -0.11453533 3
1354234720049444343;compass/AK8973 Magnetic Field;14.1875 18.0 25.25 3
1354234720049413343;accel/kr3dh;-0.35412905 0.7354988 9.765789 3
1354234720049413343;linaccel/Linear Acceleration Sensor;0.0029519498 0.012042105 -0.023257256 3
1354234720049383343;orientation/AK8973 Compass;316.9375 -4.3125 -2.0625 1
1354234720145300343;accel/kr3dh;-0.29964766 0.7491191 9.80665 3
1354234720145300343;compass/AK8973 Magnetic Field;13.875 17.6875 25.25 3
1354234720145300343;linaccel/Linear Acceleration Sensor;0.04615423 0.038269103 0.042633057 3
1354234720145269343;orientation/AK8973 Compass;316.9375 -4.375 -1.734375 1
1354234720238000000;rawNmea;$GPGSV,4,1,13,03,32,239,26,06,31,219,19,18,32,068,27,19,42,272,28*76
1354234720257879343;compass/AK8973 Magnetic Field;14.1875 18.25 25.25 3
1354234720257849343;accel/kr3dh;-0.35412905 0.6401563 9.765789 3
1354234720257849343;linaccel/Linear Acceleration Sensor;-0.02169168 -0.07147962 0.014753342 3
1354234720257818343;orientation/AK8973 Compass;316.98438 -3.75 -2.0625 1
1354234720262000000;rawNmea;$GPGSV,4,2,13,21,16,129,15,01,03,312,,09,09,039,,11,18,310,*74
1354234720264000000;rawNmea;$GPGSV,4,3,13,14,80,147,,22,64,030,,24,13,046,,31,03,170,*73
1354234720266000000;rawNmea;$GPGSV,4,4,13,32,10,268,*47
1354234720271000000;rawNmea;$GPGGA,001839.0,3752.508600,N,12215.509128,W,1,02,500.0,132.8,M,-26.0,M,,*61
1354234720283000000;rawNmea;$GPVTG,,T,,M,,N,,K,N*2C
1354234720285000000;rawNmea;$GPRMC,001839.0,A,3752.508600,N,12215.509128,W,,,301112,,,A*75
1354234720287000000;rawNmea;$GPGSA,A,3,03,06,,,,,,,,,,,500.0,500.0,500.0*32
1354234719000000000;latLngE7Gps;378751433 -1222584854 174.0 -1.0 -1.0
1354234720352453343;accel/kr3dh;-0.2860273 0.7354988 9.779409 3
1354234720352453343;compass/AK8973 Magnetic Field;14.4375 18.5 25.25 3
1354234720352453343;linaccel/Linear Acceleration Sensor;0.039708197 0.01974833 0.02387619 3
1354234720352422343;orientation/AK8973 Compass;317.01563 -4.3125 -1.671875 1
1354234720448858343;orientation/AK8973 Compass;317.04688 -4.453125 -1.671875 1
1354234720448858343;accel/kr3dh;-0.2860273 0.7627395 9.765789 3
1354234720448858343;compass/AK8973 Magnetic Field;14.4375 18.5 24.6875 3
1354234720448858343;linaccel/Linear Acceleration Sensor;0.03608939 0.0471161 -0.0028858185 3
1354234720477087645;wifi;00:22:90:39:07:12,UNKNOWN,-74 00:23:04:89:cd:b2,UNKNOWN,-77 00:17:df:a7:33:12,UNKNOWN,-78 00:17:df:a8:60:62,UNKNOWN,-78 00:17:df:a7:4c:f2,UNKNOWN,-86 28:cf:da:b8:1e:d5,UNKNOWN,-88 00:17:df:a7:33:15,UNKNOWN,-78 00:17:df:a8:60:65,UNKNOWN,-83 00:23:04:89:c3:d5,UNKNOWN,-92 00:22:90:39:07:11,UNKNOWN,-74 00:13:5f:55:d8:b0,UNKNOWN,-74 00:23:04:89:cd:b0,UNKNOWN,-74 00:23:04:89:cd:b6,UNKNOWN,-76 00:23:04:89:cd:b1,UNKNOWN,-76 00:17:df:a7:33:16,UNKNOWN,-78 00:17:df:a8:60:61,UNKNOWN,-79 00:17:df:a8:60:60,UNKNOWN,-80 00:17:df:a8:60:66,UNKNOWN,-80 00:17:df:a7:33:10,UNKNOWN,-80 00:22:90:39:07:16,UNKNOWN,-81 00:22:90:39:65:b1,UNKNOWN,-82 00:22:90:39:07:10,UNKNOWN,-82 00:17:df:a7:33:11,UNKNOWN,-78 00:22:90:39:65:b6,UNKNOWN,-83 00:23:04:89:c3:d0,UNKNOWN,-95 00:23:04:89:c3:d6,UNKNOWN,-96 
1354234720556616343;orientation/AK8973 Compass;317.07813 -4.140625 -1.984375 1
1354234720556616343;accel/kr3dh;-0.3405087 0.7082581 9.765789 3
1354234720556616343;compass/AK8973 Magnetic Field;14.6875 18.75 24.6875 3
1354234720556616343;linaccel/Linear Acceleration Sensor;-0.02442664 -0.0066031814 -0.012537956 3
1354234720649267343;compass/AK8973 Magnetic Field;14.4375 18.25 24.4375 3
1354234720649236343;orientation/AK8973 Compass;317.09375 -4.234375 -1.59375 1
1354234720649236343;accel/kr3dh;-0.27240697 0.7218784 9.765789 3
1354234720649236343;linaccel/Linear Acceleration Sensor;0.036850363 0.00246799 -0.013345718 3
1354234720742010343;orientation/AK8973 Compass;317.10938 -4.109375 -2.21875 1
1354234720742010343;accel/kr3dh;-0.38136974 0.7082581 9.80665 3
1354234720742010343;compass/AK8973 Magnetic Field;14.1875 18.25 24.6875 3
1354234720742010343;linaccel/Linear Acceleration Sensor;-0.0764648 -0.017535925 0.03166008 3
1354234720836462343;compass/AK8973 Magnetic Field;14.1875 18.25 25.25 3
1354234720836431343;accel/kr3dh;-0.3405087 0.81722087 9.765789 3
1354234720836431343;linaccel/Linear Acceleration Sensor;-0.033375174 0.08817679 -0.00630188 3
1354234720836401343;orientation/AK8973 Compass;317.09375 -4.796875 -1.984375 1
1354234720936712343;accel/kr3dh;-0.35412905 0.7763598 9.697687 3
1354234720936712343;compass/AK8973 Magnetic Field;13.875 18.0 25.75 3
1354234720936712343;linaccel/Linear Acceleration Sensor;-0.03548494 0.042862415 -0.07474232 3
1354234720936682343;orientation/AK8973 Compass;317.09375 -4.5625 -2.0625 1
1354234721032507343;orientation/AK8973 Compass;317.17188 -4.453125 -2.015625 1
1354234721032507343;accel/kr3dh;-0.3405087 0.7491191 9.629586 3
1354234721032507343;compass/AK8973 Magnetic Field;13.875 18.75 26.25 3
1354234721032507343;linaccel/Linear Acceleration Sensor;-0.006474018 0.0037147403 -0.13828945 3
1354234721132025343;compass/AK8973 Magnetic Field;14.1875 18.75 26.0 3
1354234721131994343;accel/kr3dh;-0.32688835 0.7899802 9.684067 3
1354234721131994343;linaccel/Linear Acceleration Sensor;0.019564658 0.027778149 -0.06287575 3
1354234721131933343;orientation/AK8973 Compass;317.20313 -4.65625 -1.9375 1
1354234721276800782;wifi;00:22:90:39:07:12,UNKNOWN,-75 00:23:04:89:cd:b2,UNKNOWN,-76 00:17:df:a7:33:12,UNKNOWN,-77 00:17:df:a8:60:62,UNKNOWN,-80 b8:c7:5d:08:bd:fd,UNKNOWN,-83 00:17:df:a7:4c:f2,UNKNOWN,-89 28:cf:da:b8:1e:d5,UNKNOWN,-90 00:22:90:39:07:15,UNKNOWN,-72 00:23:04:89:cd:b5,UNKNOWN,-73 00:17:df:a7:33:15,UNKNOWN,-77 00:17:df:a8:60:65,UNKNOWN,-82 00:17:df:a7:4c:f5,UNKNOWN,-86 00:23:04:89:c3:d5,UNKNOWN,-95 00:17:df:a7:33:16,UNKNOWN,-77 00:17:df:a7:33:11,UNKNOWN,-77 00:23:04:89:cd:b1,UNKNOWN,-78 00:23:04:89:cd:b0,UNKNOWN,-79 00:17:df:a8:60:61,UNKNOWN,-79 00:17:df:a7:33:10,UNKNOWN,-79 00:22:90:39:07:10,UNKNOWN,-80 00:23:04:89:cd:b6,UNKNOWN,-80 00:17:df:a8:60:66,UNKNOWN,-81 00:22:90:39:07:11,UNKNOWN,-83 00:17:df:a7:4c:f6,UNKNOWN,-86 00:22:90:39:b5:b0,UNKNOWN,-91 00:23:04:89:c3:d1,UNKNOWN,-95 00:23:04:89:c3:d6,UNKNOWN,-96 
1354234721235662343;compass/AK8973 Magnetic Field;14.4375 18.5 26.0 3
1354234721235632343;accel/kr3dh;-0.3949901 0.7082581 9.779409 3
1354234721235632343;linaccel/Linear Acceleration Sensor;-0.04411927 -0.06475252 0.066892624 3
1354234721235571343;orientation/AK8973 Compass;317.1875 -4.140625 -2.296875 1
1354234721243000000;rawNmea;$GPGSV,4,1,13,03,32,239,25,06,31,219,19,18,32,068,27,19,42,272,28*75
1354234721285000000;rawNmea;$GPGGA,001840.0,3752.508600,N,12215.509128,W,1,02,500.0,132.8,M,-26.0,M,,*6F
1354234721294000000;rawNmea;$GPVTG,,T,,M,,N,,K,N*2C
1354234721297000000;rawNmea;$GPRMC,001840.0,A,3752.508600,N,12215.509128,W,,,301112,,,A*7B
1354234721299000000;rawNmea;$GPGSA,A,3,03,06,,,,,,,,,,,500.0,500.0,500.0*32
1354234720000000000;latLngE7Gps;378751433 -1222584854 189.0 -1.0 -1.0
1354234721330114343;accel/kr3dh;-0.32688835 0.7218784 9.765789 3
1354234721330114343;compass/AK8973 Magnetic Field;14.6875 19.0 25.75 3
1354234721330114343;linaccel/Linear Acceleration Sensor;0.024050176 -0.050089538 0.075182915 3
1354234721330084343;orientation/AK8973 Compass;317.21875 -4.234375 -1.90625 1
1354234721423620343;accel/kr3dh;-0.29964766 0.7491191 9.820271 3
1354234721423620343;compass/AK8973 Magnetic Field;14.9375 18.75 25.75 3
1354234721423620343;linaccel/Linear Acceleration Sensor;0.050810724 -0.011380196 0.12526798 3
1354234721423589343;orientation/AK8973 Compass;317.1875 -4.375 -1.734375 1
1354234721517553343;accel/kr3dh;-0.313268 0.7627395 9.79303 3
1354234721517553343;compass/AK8973 Magnetic Field;15.1875 18.5 25.75 3
1354234721517553343;linaccel/Linear Acceleration Sensor;0.03394717 0.017262757 0.06951332 3
1354234721517523343;orientation/AK8973 Compass;317.09375 -4.453125 -1.8125 1
1354234721613134343;compass/AK8973 Magnetic Field;14.9375 18.75 25.75 3
1354234721613104343;accel/kr3dh;-0.313268 0.6810174 9.765789 3
1354234721613104343;linaccel/Linear Acceleration Sensor;0.024251759 -0.05442536 0.0049266815 3
1354234721613073343;orientation/AK8973 Compass;317.09375 -3.96875 -1.84375 1
1354234721711431343;compass/AK8973 Magnetic Field;14.9375 18.5 25.75 3
1354234721711401343;accel/kr3dh;-0.3405087 0.6810174 9.80665 3
1354234721711401343;linaccel/Linear Acceleration Sensor;-0.016144693 -0.049689353 0.017333984 3
1354234721711370343;orientation/AK8973 Compass;317.0625 -3.96875 -1.984375 1
1354234721815496343;compass/AK8973 Magnetic Field;14.4375 18.25 25.5 3
1354234721815466343;accel/kr3dh;-0.27240697 0.8036005 9.765789 3
1354234721815466343;linaccel/Linear Acceleration Sensor;0.042496055 0.07917243 -0.03394699 3
1354234721815405343;orientation/AK8973 Compass;317.04688 -4.703125 -1.59375 1
1354234721912390343;compass/AK8973 Magnetic Field;13.625 18.75 26.0 3
1354234721912359343;orientation/AK8973 Compass;317.17188 -4.234375 -2.0625 1
1354234721912359343;accel/kr3dh;-0.35412905 0.7218784 9.765789 3
1354234721912359343;linaccel/Linear Acceleration Sensor;-0.04241544 0.0026570559 -0.031082153 3
1354234722011755343;compass/AK8973 Magnetic Field;13.875 18.75 26.0 3
1354234722011724343;accel/kr3dh;-0.313268 0.6537767 9.765789 3
1354234722011724343;linaccel/Linear Acceleration Sensor;-9.188652E-4 -0.067144156 -0.021554947 3
1354234722011694343;orientation/AK8973 Compass;317.29688 -3.84375 -1.84375 1
1354234722070746092;wifi;00:22:90:39:07:12,UNKNOWN,-78 00:17:df:a7:33:12,UNKNOWN,-79 00:17:df:a8:60:62,UNKNOWN,-80 b8:c7:5d:08:bd:fd,UNKNOWN,-82 00:17:df:a7:4c:f2,UNKNOWN,-86 28:cf:da:b8:1e:d5,UNKNOWN,-90 00:17:df:a7:33:15,UNKNOWN,-78 00:17:df:a8:60:65,UNKNOWN,-80 00:17:df:a7:4c:f5,UNKNOWN,-87 00:22:90:39:07:10,UNKNOWN,-74 00:22:90:39:07:16,UNKNOWN,-75 00:17:df:a8:60:66,UNKNOWN,-77 00:17:df:a7:33:11,UNKNOWN,-78 00:22:90:39:07:11,UNKNOWN,-78 00:17:df:a8:60:61,UNKNOWN,-80 00:17:df:a8:60:60,UNKNOWN,-81 00:22:90:39:65:b6,UNKNOWN,-83 00:17:df:a7:33:10,UNKNOWN,-83 00:17:df:a7:33:16,UNKNOWN,-83 00:22:90:39:65:b1,UNKNOWN,-86 00:17:df:a7:4c:f6,UNKNOWN,-87 00:17:df:a7:4c:f1,UNKNOWN,-88 00:23:04:89:c3:d1,UNKNOWN,-95 
1354234722109838343;orientation/AK8973 Compass;317.35938 -4.140625 -1.8125 1
1354234722109838343;accel/kr3dh;-0.313268 0.7082581 9.765789 3
1354234722109838343;compass/AK8973 Magnetic Field;14.1875 18.75 26.5 3
1354234722109838343;linaccel/Linear Acceleration Sensor;0.001971066 -0.015468001 -0.011002541 3
1354234722205541343;compass/AK8973 Magnetic Field;14.1875 18.5 26.75 3
1354234722205511343;accel/kr3dh;-0.35412905 0.6946377 9.79303 3
1354234722205511343;linaccel/Linear Acceleration Sensor;-0.034995764 -0.023555398 0.02392292 3
1354234722205480343;orientation/AK8973 Compass;317.375 -4.0625 -2.0625 1
1354234722244000000;rawNmea;$GPGSV,4,1,13,03,32,239,26,06,31,219,19,18,32,068,27,19,42,272,28*76
1354234722246000000;rawNmea;$GPGSV,4,2,13,21,16,129,15,01,03,312,,09,09,039,,11,18,310,*74
1354234722248000000;rawNmea;$GPGSV,4,3,13,14,80,147,,22,64,030,,24,13,046,,31,03,170,*73
1354234722249000000;rawNmea;$GPGSV,4,4,13,32,10,268,*47
1354234722253000000;rawNmea;$GPGGA,001841.0,,,,,0,,,,,,,,*74
1354234722256000000;rawNmea;$GPVTG,,T,,M,,N,,K,N*2C
1354234722258000000;rawNmea;$GPRMC,,V,,,,,,,,,,N*53
1354234722262000000;rawNmea;$GPGSA,A,1,,,,,,,,,,,,,,,*1E
1354234722302007343;accel/kr3dh;-0.35412905 0.7082581 9.765789 3
1354234722302007343;compass/AK8973 Magnetic Field;14.4375 18.5 26.75 3
1354234722302007343;linaccel/Linear Acceleration Sensor;-0.030430287 0.002038896 -8.72612E-4 3
1354234722301977343;orientation/AK8973 Compass;317.34375 -4.140625 -2.078125 1
1354234722400732343;orientation/AK8973 Compass;317.39063 -3.890625 -1.8125 1
1354234722400732343;accel/kr3dh;-0.313268 0.667397 9.779409 3
1354234722400732343;compass/AK8973 Magnetic Field;13.875 18.25 26.25 3
1354234722400732343;linaccel/Linear Acceleration Sensor;0.016848564 -0.028907537 0.010151863 3
1354234722497167343;compass/AK8973 Magnetic Field;13.625 18.0 25.25 3
1354234722497137343;accel/kr3dh;-0.32688835 0.7627395 9.80665 3
1354234722497137343;linaccel/Linear Acceleration Sensor;0.009385169 0.07008922 0.03281212 3
1354234722497076343;orientation/AK8973 Compass;317.42188 -4.453125 -1.90625 1
1354234722594427343;compass/AK8973 Magnetic Field;13.875 18.25 24.9375 3
1354234722594396343;accel/kr3dh;-0.35412905 0.7763598 9.779409 3
1354234722594396343;linaccel/Linear Acceleration Sensor;-0.015782386 0.079726875 4.5967102E-4 3
1354234722594335343;orientation/AK8973 Compass;317.4375 -4.53125 -2.0625 1
1354234722696050343;compass/AK8973 Magnetic Field;13.875 18.0 24.6875 3
1354234722696020343;accel/kr3dh;-0.313268 0.667397 9.684067 3
1354234722696020343;linaccel/Linear Acceleration Sensor;0.02307576 -0.042995393 -0.098493576 3
1354234722695959343;orientation/AK8973 Compass;317.46875 -3.953125 -1.84375 1
1354234722792425343;accel/kr3dh;-0.25878662 0.7763598 9.779409 3
1354234722792425343;compass/AK8973 Magnetic Field;14.1875 18.25 25.25 3
1354234722792425343;linaccel/Linear Acceleration Sensor;0.074004054 0.049955964 6.8187714E-4 3
1354234722792394343;orientation/AK8973 Compass;317.46875 -4.53125 -1.515625 1
1354234722892706343;compass/AK8973 Magnetic Field;14.1875 18.0 25.5 3
1354234722892675343;accel/kr3dh;-0.38136974 0.667397 9.697687 3
1354234722892675343;linaccel/Linear Acceleration Sensor;-0.055357784 -0.068199694 -0.066646576 3
1354234722892614343;orientation/AK8973 Compass;317.42188 -3.953125 -2.234375 1
1354234723000860840;wifi;00:17:df:a7:33:12,UNKNOWN,-74 00:22:90:39:07:12,UNKNOWN,-75 00:23:04:89:cd:b2,UNKNOWN,-77 00:17:df:a7:4c:f2,UNKNOWN,-86 00:22:90:39:65:b2,UNKNOWN,-93 00:22:90:39:07:15,UNKNOWN,-75 00:17:df:a7:33:15,UNKNOWN,-75 00:23:04:89:cd:b5,UNKNOWN,-77 00:17:df:a8:60:65,UNKNOWN,-80 00:22:90:39:65:b5,UNKNOWN,-84 00:17:df:a7:4c:f5,UNKNOWN,-86 00:22:90:39:b5:b5,UNKNOWN,-91 00:17:df:a7:33:16,UNKNOWN,-74 00:17:df:a7:33:11,UNKNOWN,-74 00:17:df:a7:33:10,UNKNOWN,-74 00:22:90:39:07:16,UNKNOWN,-76 00:23:04:89:cd:b0,UNKNOWN,-76 00:23:04:89:cd:b1,UNKNOWN,-76 00:23:04:89:cd:b6,UNKNOWN,-77 00:17:df:a8:60:60,UNKNOWN,-80 00:17:df:a8:60:66,UNKNOWN,-80 00:22:90:39:07:11,UNKNOWN,-81 00:22:90:39:65:b6,UNKNOWN,-82 00:22:90:39:65:b1,UNKNOWN,-92 00:23:04:89:bb:f0,UNKNOWN,-95 00:23:04:89:c3:d6,UNKNOWN,-93 
1354234722990637343;compass/AK8973 Magnetic Field;14.4375 17.6875 25.5 3
1354234722990576343;accel/kr3dh;-0.3677494 0.6537767 9.80665 3
1354234722990576343;linaccel/Linear Acceleration Sensor;-0.04855925 -0.07897353 0.058843613 3
1354234722990545343;orientation/AK8973 Compass;317.32813 -3.8125 -2.15625 1
1354234723085027343;orientation/AK8973 Compass;317.15625 -4.625 -1.8125 1
1354234723085027343;accel/kr3dh;-0.313268 0.7899802 9.765789 3
1354234723085027343;compass/AK8973 Magnetic Field;14.9375 17.6875 25.75 3
1354234723085027343;linaccel/Linear Acceleration Sensor;0.0071581006 0.06955159 0.026435852 3
1354234723177007343;orientation/AK8973 Compass;316.96875 -4.171875 -2.40625 1
1354234723177007343;accel/kr3dh;-0.40861043 0.7082581 9.697687 3
1354234723177007343;compass/AK8973 Magnetic Field;15.1875 17.6875 25.75 3
1354234723177007343;linaccel/Linear Acceleration Sensor;-0.07786101 6.708503E-4 -0.04413414 3
