1354234492370876220;metadata_log_format;3 # nanosecond timing
1354234492372066406;metadata_system_time;1354234492372
1354234492373256592;metadata_surveyName;/sdcard/LocationTracker/1354234492354.txt
1354234492374507813;metadata_notes;
1354234492375545410;metadata_deviceInfo;Board: bryce Brand: Verizon Device: bryce Hardware: qcom Manufacturer: LGE Model: VS910 4G Product: bryce
1354234488025000000;latLngE7LastKnown;378754021 -1222587556 50.0 -1.0 -1.0
1354234492451747185;compass/AK8973 Magnetic Field;0.0 -4.0 12.3125 3
1354234492451717185;orientation/AK8973 Compass;177.89063 0.3125 -1.03125 1
1354234492451717185;accel/kr3dh;-0.17706452 -0.05448139 9.738548 3
1354234492451717185;linaccel/Linear Acceleration Sensor;0.0 0.0 0.0 3
1354234492472000000;latLngE7Network;378754021 -1222587556 50.0 -1.0 -1.0
1354234492543788185;accel/kr3dh;-0.12258313 0.027240695 9.820271 3
1354234492543788185;compass/AK8973 Magnetic Field;0.75 -4.25 11.8125 3
1354234492543788185;linaccel/Linear Acceleration Sensor;0.053763382 0.08064506 0.08064461 3
1354234492543758185;orientation/AK8973 Compass;184.875 -0.171875 -0.734375 1
1354234492639186185;compass/AK8973 Magnetic Field;0.5 -4.75 12.5625 3
1354234492639156185;accel/kr3dh;-0.08172209 -0.095342435 9.820271 3
1354234492639156185;linaccel/Linear Acceleration Sensor;0.08962204 -0.04672724 0.07404709 3
1354234492639125185;orientation/AK8973 Compass;185.03125 0.5625 -0.484375 1
1354234492672695070;wifi;00:23:04:89:cd:b2,UNKNOWN,-71 00:17:df:a7:33:12,UNKNOWN,-80 00:22:90:39:07:12,UNKNOWN,-84 00:17:df:a7:4c:f2,UNKNOWN,-87 00:23:04:89:cd:b5,UNKNOWN,-72 00:17:df:a8:60:65,UNKNOWN,-80 00:17:df:a7:33:15,UNKNOWN,-80 00:22:90:39:07:15,UNKNOWN,-86 00:22:90:39:65:b5,UNKNOWN,-88 00:17:df:a7:33:11,UNKNOWN,-79 00:17:df:a7:33:10,UNKNOWN,-81 00:17:df:a7:33:16,UNKNOWN,-81 00:17:df:a8:60:60,UNKNOWN,-82 00:23:04:89:cd:b0,UNKNOWN,-83 00:23:04:89:cd:b6,UNKNOWN,-83 00:22:90:39:07:11,UNKNOWN,-85 00:22:90:39:07:16,UNKNOWN,-85 00:17:df:a7:4c:f0,UNKNOWN,-86 00:22:90:39:07:10,UNKNOWN,-87 00:22:90:39:65:b6,UNKNOWN,-88 
1354234492733760185;accel/kr3dh;-0.08172209 0.040861044 9.820271 3
1354234492733760185;compass/AK8973 Magnetic Field;0.5 -5.0 13.3125 3
1354234492733760185;linaccel/Linear Acceleration Sensor;0.07542745 0.08117581 0.05773735 3
1354234492733730185;orientation/AK8973 Compass;185.14063 -0.25 -0.484375 1
1354234492829890185;compass/AK8973 Magnetic Field;0.5 -4.25 12.8125 3
1354234492829860185;accel/kr3dh;-0.095342435 -0.05448139 9.765789 3
1354234492829860185;linaccel/Linear Acceleration Sensor;0.037658446 -0.023033649 -0.019914627 3
1354234492829829185;orientation/AK8973 Compass;185.35938 0.3125 -0.5625 1
1354234492929927185;compass/AK8973 Magnetic Field;0.0 -4.0 13.3125 3
1354234492929897185;accel/kr3dh;-0.08172209 -0.12258313 9.779409 3
1354234492929897185;linaccel/Linear Acceleration Sensor;0.024398006 -0.096517906 -0.024585724 3
1354234492929866185;orientation/AK8973 Compass;185.125 0.734375 -0.46875 1
1354234493025172185;accel/kr3dh;-0.05448139 -0.027240695 9.711308 3
1354234493025172185;compass/AK8973 Magnetic Field;0.25 -4.0 12.5625 3
1354234493025172185;linaccel/Linear Acceleration Sensor;0.032995116 0.002582213 -0.09492493 3
1354234493025142185;orientation/AK8973 Compass;185.09375 0.171875 -0.3125 1
1354234493118831185;accel/kr3dh;-0.027240695 -0.06810174 9.80665 3
1354234493118831185;compass/AK8973 Magnetic Field;0.75 -4.0 12.3125 3
1354234493118831185;linaccel/Linear Acceleration Sensor;0.049578324 -0.02498772 0.013278961 3
1354234493118800185;orientation/AK8973 Compass;185.48438 0.390625 -0.171875 1
1354234493212306185;accel/kr3dh;-0.10896278 0.027240695 9.833891 3
1354234493212306185;compass/AK8973 Magnetic Field;0.75 -4.75 12.5625 3
1354234493212306185;linaccel/Linear Acceleration Sensor;-0.03998728 0.08368417 0.05776024 3
1354234493212276185;orientation/AK8973 Compass;185.79688 -0.171875 -0.640625 1
1354234493221000000;rawNmea;$GPGSV,4,1,13,03,33,241,20,06,33,220,25,18,34,066,18,19,42,277,28*78
1354234493225000000;rawNmea;$GPGSV,4,2,13,01,01,310,,09,11,042,,11,16,310,,14,77,160,*77
1354234493230000000;rawNmea;$GPGSV,4,3,13,21,19,127,,22,66,023,,24,14,049,,31,00,171,*79
1354234493239000000;rawNmea;$GPGSV,4,4,13,32,08,265,*43
1354234493253000000;rawNmea;$GPGGA,001452.0,3752.503428,N,12215.508681,W,1,04,5.2,126.2,M,-26.0,M,,*6D
1354234493260000000;rawNmea;$GPVTG,307.6,T,307.6,M,0.0,N,0.0,K,A*23
1354234493267000000;rawNmea;$GPRMC,001452.0,A,3752.503428,N,12215.508681,W,0.0,307.6,301112,,,A*70
1354234493269000000;rawNmea;$GPGSA,A,3,03,06,18,19,,,,,,,,,24.3,5.2,23.7*32
1354234492000000000;latLngE7Gps;378750571 -1222584780 185.0 -1.0 0.0
1354234493315425185;compass/AK8973 Magnetic Field;0.75 -5.5 12.5625 3
1354234493315395185;orientation/AK8973 Compass;186.0 0.171875 -0.5625 1
1354234493315395185;accel/kr3dh;-0.095342435 -0.027240695 9.80665 3
1354234493315395185;linaccel/Linear Acceleration Sensor;-0.03204886 0.029852716 0.036844254 3
1354234493409084185;orientation/AK8973 Compass;186.03125 -0.171875 -0.390625 1
1354234493409084185;accel/kr3dh;-0.06810174 0.027240695 9.738548 3
1354234493409084185;compass/AK8973 Magnetic Field;0.5 -5.25 13.3125 3
1354234493409084185;linaccel/Linear Acceleration Sensor;-0.0031788424 0.07101324 -0.04040718 3
1354234493504207185;compass/AK8973 Magnetic Field;0.5 -5.25 13.0625 3
1354234493504176185;accel/kr3dh;-0.040861044 -0.027240695 9.874752 3
1354234493504176185;linaccel/Linear Acceleration Sensor;0.03170752 -0.004229797 0.081269264 3
1354234493504115185;orientation/AK8973 Compass;186.03125 0.171875 -0.21875 1
1354234493600459185;compass/AK8973 Magnetic Field;0.25 -5.5 12.8125 3
1354234493600398185;accel/kr3dh;-0.05448139 -0.05448139 9.738548 3
1354234493600398185;linaccel/Linear Acceleration Sensor;0.022727396 -0.048015323 -0.063640594 3
1354234493600368185;orientation/AK8973 Compass;185.85938 0.3125 -0.3125 1
1354234493701198486;wifi;00:23:04:89:cd:b2,UNKNOWN,-73 00:17:df:a7:33:12,UNKNOWN,-78 00:17:df:a7:4c:f2,UNKNOWN,-83 28:cf:da:b8:1e:d5,UNKNOWN,-85 00:22:90:39:65:b2,UNKNOWN,-86 00:23:04:89:cd:b5,UNKNOWN,-65 00:17:df:a8:60:65,UNKNOWN,-78 00:22:90:39:65:b5,UNKNOWN,-89 00:23:04:89:cd:b6,UNKNOWN,-66 00:23:04:89:cd:b0,UNKNOWN,-66 00:23:04:89:cd:b1,UNKNOWN,-74 00:17:df:a7:33:16,UNKNOWN,-77 00:17:df:a7:33:10,UNKNOWN,-77 00:17:df:a7:33:11,UNKNOWN,-78 00:22:90:39:07:10,UNKNOWN,-79 00:17:df:a8:60:60,UNKNOWN,-82 00:17:df:a7:4c:f0,UNKNOWN,-84 00:22:90:39:65:b6,UNKNOWN,-85 00:13:5f:55:d8:b0,UNKNOWN,-89 00:22:90:39:65:b1,UNKNOWN,-90 
1354234493704860185;compass/AK8973 Magnetic Field;0.5 -5.0 12.8125 3
1354234493704829185;accel/kr3dh;-0.027240695 -0.027240695 9.79303 3
1354234493704829185;linaccel/Linear Acceleration Sensor;0.04427187 -0.023494773 -0.009961128 3
1354234493704768185;orientation/AK8973 Compass;185.875 0.171875 -0.171875 1
1354234493805019185;orientation/AK8973 Compass;186.04688 0.25 -0.171875 1
1354234493805019185;accel/kr3dh;-0.027240695 -0.040861044 9.765789 3
1354234493805019185;compass/AK8973 Magnetic Field;0.75 -5.25 12.5625 3
1354234493805019185;linaccel/Linear Acceleration Sensor;0.03148482 -0.026565325 -0.0317688 3
1354234493898219185;compass/AK8973 Magnetic Field;0.75 -5.0 12.8125 3
1354234493898189185;accel/kr3dh;-0.08172209 -0.06810174 9.697687 3
1354234493898189185;linaccel/Linear Acceleration Sensor;-0.035706937 -0.03978299 -0.08985901 3
1354234493898128185;orientation/AK8973 Compass;186.29688 0.390625 -0.484375 1
1354234493996303185;compass/AK8973 Magnetic Field;1.0 -4.5 12.8125 3
1354234493996272185;accel/kr3dh;-0.12258313 -0.095342435 9.833891 3
1354234493996272185;linaccel/Linear Acceleration Sensor;-0.08265258 -0.05382907 0.060359 3
1354234493996242185;orientation/AK8973 Compass;190.5625 0.5625 -0.734375 1
1354234494092525185;compass/AK8973 Magnetic Field;1.0 -4.5 12.5625 3
1354234494092494185;orientation/AK8973 Compass;190.71875 0.3125 -0.171875 1
1354234494092494185;accel/kr3dh;-0.027240695 -0.05448139 9.779409 3
1354234494092494185;linaccel/Linear Acceleration Sensor;0.019233292 -9.6848235E-4 0.01717472 3
1354234494192104185;accel/kr3dh;-0.095342435 -0.027240695 9.80665 3
1354234494192104185;linaccel/Linear Acceleration Sensor;-0.033187132 0.036903724 0.044721603 3
1354234494192043185;orientation/AK8973 Compass;190.9375 0.171875 -0.5625 1
1354234494212000000;rawNmea;$GPGSV,4,1,13,03,33,241,20,06,33,220,25,18,34,066,18,19,42,277,28*78
1354234494215000000;rawNmea;$GPGSV,4,2,13,01,01,310,,09,11,042,,11,16,310,,14,77,160,*77
1354234494222000000;rawNmea;$GPGSV,4,3,13,21,19,127,,22,66,023,,24,14,049,,31,00,171,*79
1354234494230000000;rawNmea;$GPGSV,4,4,13,32,08,265,*43
1354234494244000000;rawNmea;$GPGGA,001453.0,3752.503432,N,12215.508681,W,1,04,5.2,126.2,M,-26.0,M,,*67
1354234494251000000;rawNmea;$GPVTG,307.6,T,307.6,M,0.0,N,0.0,K,A*23
1354234494258000000;rawNmea;$GPRMC,001453.0,A,3752.503432,N,12215.508681,W,0.0,307.6,301112,,,A*7A
1354234494265000000;rawNmea;$GPGSA,A,3,03,06,18,19,,,,,,,,,24.3,5.2,23.7*32
1354234494296260185;compass/AK8973 Magnetic Field;1.25 -4.5 12.8125 3
1354234494296230185;accel/kr3dh;-0.040861044 -0.06810174 9.684067 3
1354234494296230185;linaccel/Linear Acceleration Sensor;0.03362069 -3.405884E-4 -0.08818817 3
1354234494296169185;orientation/AK8973 Compass;191.28125 0.390625 -0.25 1
1354234493000000000;latLngE7Gps;378750572 -1222584780 191.0 -1.0 0.0
1354234494389308185;compass/AK8973 Magnetic Field;1.0 -4.25 12.8125 3
1354234494389278185;accel/kr3dh;-0.06810174 -0.027240695 9.833891 3
1354234494389278185;linaccel/Linear Acceleration Sensor;0.008581251 0.035990596 0.055042267 3
1354234494389217185;orientation/AK8973 Compass;191.48438 0.171875 -0.390625 1
1354234494487209185;orientation/AK8973 Compass;191.64063 0.25 -0.171875 1
1354234494487209185;accel/kr3dh;-0.027240695 -0.040861044 9.80665 3
1354234494487209185;compass/AK8973 Magnetic Field;1.0 -4.25 13.3125 3
1354234494487209185;linaccel/Linear Acceleration Sensor;0.043526888 0.013035048 0.029053688 3
1354234494581447185;compass/AK8973 Magnetic Field;0.75 -3.75 13.3125 3
1354234494581416185;orientation/AK8973 Compass;191.625 0.25 -0.0 1
1354234494581416185;accel/kr3dh;0.0 -0.040861044 9.738548 3
1354234494581416185;linaccel/Linear Acceleration Sensor;0.06113459 0.0047088526 -0.03772545 3
1354234494680110185;compass/AK8973 Magnetic Field;0.5 -4.0 13.0625 3
1354234494680049185;accel/kr3dh;-0.095342435 -0.05448139 9.79303 3
1354234494680049185;linaccel/Linear Acceleration Sensor;-0.046450265 -0.014247742 0.014029503 3
1354234494680019185;orientation/AK8973 Compass;191.46875 0.3125 -0.5625 1
1354234494743160155;wifi;00:17:df:a7:33:12,UNKNOWN,-76 00:22:90:39:07:12,UNKNOWN,-78 28:cf:da:b8:1e:d5,UNKNOWN,-83 00:17:df:a7:4c:f2,UNKNOWN,-89 00:22:90:39:65:b2,UNKNOWN,-94 00:17:df:a7:33:15,UNKNOWN,-76 00:22:90:39:07:15,UNKNOWN,-78 00:23:04:89:cd:b0,UNKNOWN,-67 00:17:df:a7:33:10,UNKNOWN,-75 00:17:df:a7:33:16,UNKNOWN,-76 00:17:df:a7:33:11,UNKNOWN,-76 00:22:90:39:07:16,UNKNOWN,-77 00:22:90:39:07:10,UNKNOWN,-78 00:22:90:39:07:11,UNKNOWN,-79 00:22:90:39:65:b0,UNKNOWN,-86 00:17:df:a7:4c:f0,UNKNOWN,-82 
1354234494779292185;orientation/AK8973 Compass;187.76563 -0.078125 -0.078125 1
1354234494779292185;accel/kr3dh;-0.013620348 0.013620348 9.874752 3
1354234494779292185;compass/AK8973 Magnetic Field;0.25 -3.75 13.5625 3
1354234494779292185;linaccel/Linear Acceleration Sensor;0.025234625 0.05183447 0.09204483 3
1354234494876460185;accel/kr3dh;-0.12258313 -0.095342435 9.915613 3
1354234494876460185;linaccel/Linear Acceleration Sensor;-0.08565775 -0.058165383 0.12453461 3
1354234494876399185;orientation/AK8973 Compass;187.6875 0.5625 -0.703125 1
1354234494972011185;accel/kr3dh;-0.05448139 -0.027240695 9.765789 3
1354234494972011185;compass/AK8973 Magnetic Field;0.5 -4.0 13.5625 3
1354234494972011185;linaccel/Linear Acceleration Sensor;-0.010189753 0.009218348 -0.045146942 3
1354234494971980185;orientation/AK8973 Compass;187.71875 0.171875 -0.3125 1
1354234495071132185;accel/kr3dh;-0.12258313 -0.06810174 9.765789 3
1354234495071132185;linaccel/Linear Acceleration Sensor;-0.06382333 -0.029378984 -0.069158554 3
1354234495071071185;orientation/AK8973 Compass;187.84375 0.390625 -0.734375 1
1354234495170070185;compass/AK8973 Magnetic Field;0.75 -4.5 13.3125 3
1354234495170039185;accel/kr3dh;-0.08172209 -0.05448139 9.738548 3
1354234495170039185;linaccel/Linear Acceleration Sensor;-0.0068085194 -0.009920638 -0.10163975 3
1354234495169978185;orientation/AK8973 Compass;188.04688 0.3125 -0.484375 1
1354234495213000000;rawNmea;$GPGSV,4,1,13,03,33,241,24,06,33,220,21,18,34,066,18,19,42,277,27*77
1354234495219000000;rawNmea;$GPGSV,4,2,13,01,01,310,,09,11,042,,11,16,310,,14,77,160,*77
1354234495225000000;rawNmea;$GPGSV,4,3,13,21,19,127,,22,66,023,,24,14,049,,31,00,171,*79
1354234495231000000;rawNmea;$GPGSV,4,4,13,32,08,265,*43
1354234495250000000;rawNmea;$GPGGA,001454.0,3752.503439,N,12215.508682,W,1,04,5.2,126.2,M,-26.0,M,,*68
1354234495257000000;rawNmea;$GPVTG,307.6,T,307.6,M,0.0,N,0.0,K,A*23
1354234495266231185;compass/AK8973 Magnetic Field;0.5 -4.25 13.5625 3
1354234495266200185;accel/kr3dh;-0.06810174 -0.0 9.656827 3
1354234495266200185;linaccel/Linear Acceleration Sensor;0.019444004 0.050187275 -0.16114807 3
1354234495266139185;orientation/AK8973 Compass;188.04688 0.0 -0.390625 1
1354234495263000000;rawNmea;$GPRMC,001454.0,A,3752.503439,N,12215.508682,W,0.0,307.6,301112,,,A*75
1354234495275000000;rawNmea;$GPGSA,A,3,03,06,18,19,,,,,,,,,24.3,5.2,23.7*32
1354234494000000000;latLngE7Gps;378750573 -1222584780 197.0 -1.0 0.0
1354234495367061185;compass/AK8973 Magnetic Field;0.25 -4.5 13.3125 3
1354234495367000185;accel/kr3dh;-0.05448139 -0.027240695 9.779409 3
1354234495367000185;linaccel/Linear Acceleration Sensor;0.038052525 0.023100665 0.0040397644 3
1354234495366969185;orientation/AK8973 Compass;187.79688 0.171875 -0.3125 1
1354234495465846185;orientation/AK8973 Compass;187.375 0.484375 -0.390625 1
1354234495465846185;accel/kr3dh;-0.06810174 -0.08172209 9.697687 3
1354234495465846185;compass/AK8973 Magnetic Field;0.0 -4.75 13.5625 3
1354234495465846185;linaccel/Linear Acceleration Sensor;0.019551553 -0.03825811 -0.037899017 3
1354234495559901185;orientation/AK8973 Compass;182.85938 0.0 -0.484375 1
1354234495559901185;accel/kr3dh;-0.08172209 -0.0 9.779409 3
1354234495559901185;compass/AK8973 Magnetic Field;-0.25 -4.75 13.3125 3
1354234495559901185;linaccel/Linear Acceleration Sensor;-0.004201591 0.036079697 0.065078735 3
1354234495656093185;compass/AK8973 Magnetic Field;-0.5 -5.25 12.8125 3
1354234495656062185;accel/kr3dh;-0.05448139 -0.05448139 9.779409 3
1354234495656062185;linaccel/Linear Acceleration Sensor;0.013998751 -0.021059096 0.065216064 3
1354234495656032185;orientation/AK8973 Compass;179.04688 0.3125 -0.3125 1
1354234495676052003;wifi;00:17:df:a7:33:12,UNKNOWN,-76 00:22:90:39:07:12,UNKNOWN,-79 00:17:df:a7:4c:f2,UNKNOWN,-82 28:cf:da:b8:1e:d5,UNKNOWN,-85 00:17:df:a7:33:15,UNKNOWN,-77 00:22:90:39:07:15,UNKNOWN,-78 00:17:df:a7:33:10,UNKNOWN,-75 00:17:df:a7:33:11,UNKNOWN,-76 00:17:df:a7:33:16,UNKNOWN,-76 00:22:90:39:07:11,UNKNOWN,-78 00:22:90:39:07:10,UNKNOWN,-78 00:22:90:39:07:16,UNKNOWN,-78 00:17:df:a7:4c:f0,UNKNOWN,-83 00:17:df:a7:4c:f1,UNKNOWN,-82 00:22:90:39:65:b1,UNKNOWN,-93 00:23:04:89:c3:d6,UNKNOWN,-96 
1354234495754909185;accel/kr3dh;-0.05448139 -0.027240695 9.80665 3
1354234495754909185;compass/AK8973 Magnetic Field;-0.5 -5.5 13.0625 3
1354234495754909185;linaccel/Linear Acceleration Sensor;0.009840157 0.0072256755 0.07588291 3
1354234495754878185;orientation/AK8973 Compass;178.82813 0.171875 -0.3125 1
1354234495852107185;compass/AK8973 Magnetic Field;-0.5 -5.25 12.3125 3
1354234495852077185;accel/kr3dh;-0.14982383 -0.05448139 9.79303 3
1354234495852077185;linaccel/Linear Acceleration Sensor;-0.08549373 -0.01853291 0.03791237 3
1354234495852016185;orientation/AK8973 Compass;178.6875 0.3125 -0.875 1
1354234495954280185;compass/AK8973 Magnetic Field;-0.75 -5.0 12.0625 3
1354234495954219185;accel/kr3dh;-0.08172209 -0.095342435 9.820271 3
1354234495954219185;linaccel/Linear Acceleration Sensor;-0.011622146 -0.056635067 0.039952278 3
1354234495954189185;orientation/AK8973 Compass;178.29688 0.5625 -0.484375 1
1354234496053188185;compass/AK8973 Magnetic Field;-0.5 -4.5 12.3125 3
1354234496053157185;accel/kr3dh;-0.12258313 -0.05448139 9.915613 3
1354234496053157185;linaccel/Linear Acceleration Sensor;-0.039988436 -0.00890078 0.11533165 3
1354234496053096185;orientation/AK8973 Compass;178.125 0.3125 -0.703125 1
1354234496148158185;accel/kr3dh;-0.10896278 -0.05448139 9.820271 3
1354234496148158185;linaccel/Linear Acceleration Sensor;-0.011867121 0.0013153292 0.001991272 3
1354234496148128185;orientation/AK8973 Compass;177.95313 0.3125 -0.640625 1
1354234496212000000;rawNmea;$GPGSV,4,1,13,03,33,241,25,06,33,220,23,18,34,066,18,19,42,277,25*76
1354234496216000000;rawNmea;$GPGSV,4,2,13,01,01,310,,09,11,042,,11,16,310,,14,77,160,*77
1354234496220000000;rawNmea;$GPGSV,4,3,13,21,19,127,,22,66,023,,24,14,049,,31,00,171,*79
1354234496230000000;rawNmea;$GPGSV,4,4,13,32,08,265,*43
1354234496241000000;rawNmea;$GPGGA,001455.0,3752.503451,N,12215.508682,W,1,03,500.0,126.2,M,-26.0,M,,*62
1354234496245967185;compass/AK8973 Magnetic Field;-0.25 -4.25 12.8125 3
1354234496245937185;accel/kr3dh;-0.08172209 -0.0 9.861132 3
1354234496245937185;linaccel/Linear Acceleration Sensor;0.02625481 0.06353796 0.023449898 3
1354234496245906185;orientation/AK8973 Compass;177.95313 0.0 -0.484375 1
1354234496254000000;rawNmea;$GPVTG,307.6,T,307.6,M,0.0,N,0.0,K,A*23
1354234496257000000;rawNmea;$GPRMC,001455.0,A,3752.503451,N,12215.508682,W,0.0,307.6,301112,,,A*7A
1354234496262000000;rawNmea;$GPGSA,A,3,03,06,19,,,,,,,,,,500.0,500.0,500.0*3A
1354234495000000000;latLngE7Gps;378750575 -1222584780 201.0 -1.0 0.0
1354234496351161185;compass/AK8973 Magnetic Field;0.5 -4.25 13.3125 3
1354234496351131185;accel/kr3dh;-0.05448139 -0.05448139 9.779409 3
1354234496351131185;linaccel/Linear Acceleration Sensor;0.05548991 0.00605233 -0.072769165 3
1354234496351100185;orientation/AK8973 Compass;182.85938 0.3125 -0.3125 1
1354234496447688185;accel/kr3dh;-0.095342435 0.027240695 9.765789 3
1354234496447688185;compass/AK8973 Magnetic Field;0.25 -4.25 13.3125 3
1354234496447688185;linaccel/Linear Acceleration Sensor;0.007162057 0.07573769 -0.08557701 3
1354234496447658185;orientation/AK8973 Compass;183.0 -0.171875 -0.5625 1
1354234496575618652;wifi;00:23:04:89:cd:b2,UNKNOWN,-70 00:17:df:a7:33:12,UNKNOWN,-76 00:22:90:39:07:12,UNKNOWN,-79 00:17:df:a7:4c:f2,UNKNOWN,-83 28:cf:da:b8:1e:d5,UNKNOWN,-84 b8:c7:5d:08:bd:fd,UNKNOWN,-87 00:22:90:39:65:b2,UNKNOWN,-87 00:23:04:89:cd:b5,UNKNOWN,-64 00:22:90:39:07:15,UNKNOWN,-79 00:17:df:a7:33:15,UNKNOWN,-76 00:17:df:a7:4c:f5,UNKNOWN,-83 00:23:04:89:cd:b6,UNKNOWN,-64 00:23:04:89:cd:b0,UNKNOWN,-65 00:23:04:89:cd:b1,UNKNOWN,-70 00:17:df:a7:33:16,UNKNOWN,-76 00:17:df:a7:33:11,UNKNOWN,-77 00:17:df:a7:33:10,UNKNOWN,-78 00:22:90:39:07:11,UNKNOWN,-79 00:22:90:39:07:16,UNKNOWN,-80 00:17:df:a7:4c:f6,UNKNOWN,-81 00:17:df:a8:60:60,UNKNOWN,-85 00:17:df:a8:60:66,UNKNOWN,-86 00:17:df:a7:4c:f1,UNKNOWN,-86 00:17:df:a7:4c:f0,UNKNOWN,-88 
1354234496563899185;compass/AK8973 Magnetic Field;0.25 -3.75 13.8125 3
1354234496563869185;accel/kr3dh;-0.05448139 0.013620348 9.820271 3
1354234496563869185;linaccel/Linear Acceleration Sensor;0.031593848 0.041100595 -0.008005142 3
1354234496563808185;orientation/AK8973 Compass;183.125 -0.078125 -0.3125 1
1354234496657008185;accel/kr3dh;-0.06810174 -0.14982383 9.820271 3
1354234496657008185;compass/AK8973 Magnetic Field;0.0 -3.75 14.375 3
1354234496657008185;linaccel/Linear Acceleration Sensor;0.0069122985 -0.1374787 0.014308929 3
1354234496656978185;orientation/AK8973 Compass;183.03125 0.875 -0.390625 1
1354234496751308185;accel/kr3dh;-0.095342435 -0.0 9.684067 3
1354234496751308185;compass/AK8973 Magnetic Field;-0.25 -4.0 14.125 3
1354234496751308185;linaccel/Linear Acceleration Sensor;-0.026090808 0.008420346 -0.10667992 3
1354234496751277185;orientation/AK8973 Compass;182.73438 0.0 -0.5625 1
1354234496848476185;compass/AK8973 Magnetic Field;0.0 -4.5 13.5625 3
1354234496848445185;accel/kr3dh;-0.040861044 0.013620348 9.833891 3
1354234496848445185;linaccel/Linear Acceleration Sensor;0.026986916 0.032849498 0.051130295 3
1354234496848384185;orientation/AK8973 Compass;182.60938 -0.078125 -0.25 1
1354234496944270185;orientation/AK8973 Compass;182.48438 0.0 -0.21875 1
1354234496944270185;accel/kr3dh;-0.040861044 -0.0 9.847511 3
1354234496944270185;compass/AK8973 Magnetic Field;0.0 -4.75 13.0625 3
1354234496944270185;linaccel/Linear Acceleration Sensor;0.02731907 0.031415034 0.06960678 3
1354234497039424185;compass/AK8973 Magnetic Field;0.0 -5.25 12.8125 3
1354234497039394185;accel/kr3dh;-0.095342435 -0.0 9.833891 3
1354234497039394185;linaccel/Linear Acceleration Sensor;-0.028850317 0.030827781 0.053375244 3
1354234497039363185;orientation/AK8973 Compass;182.40625 0.0 -0.5625 1
1354234497134456185;orientation/AK8973 Compass;182.59375 0.171875 -1.125 1
1354234497134456185;accel/kr3dh;-0.19068487 -0.027240695 9.820271 3
1354234497134456185;compass/AK8973 Magnetic Field;0.25 -5.25 12.8125 3
1354234497134456185;linaccel/Linear Acceleration Sensor;-0.1256933 -0.008272771 0.025054932 3
1354234497214000000;rawNmea;$GPGSV,4,1,13,03,33,241,26,06,33,220,26,18,34,066,18,19,42,277,27*72
1354234497221000000;rawNmea;$GPGSV,4,2,13,01,01,310,,09,11,042,,11,16,310,,14,77,160,*77
1354234497230739185;compass/AK8973 Magnetic Field;0.5 -5.0 13.0625 3
1354234497230708185;accel/kr3dh;-0.095342435 -0.12258313 9.820271 3
1354234497230708185;linaccel/Linear Acceleration Sensor;-0.02201467 -0.1136674 0.004965782 3
1354234497230678185;orientation/AK8973 Compass;182.89063 0.734375 -0.5625 1
1354234497227000000;rawNmea;$GPGSV,4,3,13,21,19,127,,22,66,023,,24,14,049,,31,00,171,*79
1354234497241000000;rawNmea;$GPGSV,4,4,13,32,08,265,*43
1354234497246000000;rawNmea;$GPGGA,001456.0,3752.503463,N,12215.508683,W,1,03,500.0,126.2,M,-26.0,M,,*61
1354234497250000000;rawNmea;$GPVTG,307.6,T,307.6,M,0.0,N,0.0,K,A*23
1354234497253000000;rawNmea;$GPRMC,001456.0,A,3752.503463,N,12215.508683,W,0.0,307.6,301112,,,A*79
1354234497255000000;rawNmea;$GPGSA,A,3,03,06,19,,,,,,,,,,500.0,500.0,500.0*3A
1354234496000000000;latLngE7Gps;378750577 -1222584780 206.0 -1.0 0.0
1354234497332423185;accel/kr3dh;-0.06810174 -0.027240695 9.765789 3
1354234497332423185;compass/AK8973 Magnetic Field;1.0 -5.0 12.8125 3
1354234497332423185;linaccel/Linear Acceleration Sensor;0.026655905 -0.012933931 -0.06256485 3
1354234497332393185;orientation/AK8973 Compass;187.64063 0.171875 -0.390625 1
1354234497431087185;compass/AK8973 Magnetic Field;0.5 -4.75 12.8125 3
1354234497431056185;accel/kr3dh;-0.05448139 -0.0 9.765789 3
1354234497431056185;linaccel/Linear Acceleration Sensor;0.057171997 0.032922335 -0.060253143 3
1354234497431026185;orientation/AK8973 Compass;187.59375 0.0 -0.3125 1
1354234497532314185;orientation/AK8973 Compass;187.40625 0.078125 -0.5625 1
1354234497532314185;accel/kr3dh;-0.095342435 -0.013620348 9.874752 3
1354234497532314185;compass/AK8973 Magnetic Field;0.25 -4.75 12.8125 3
1354234497532314185;linaccel/Linear Acceleration Sensor;0.014497124 0.034555566 0.06369114 3
1354234497629054185;orientation/AK8973 Compass;187.21875 0.171875 -0.484375 1
1354234497629054185;accel/kr3dh;-0.08172209 -0.027240695 9.79303 3
1354234497629054185;linaccel/Linear Acceleration Sensor;0.013211347 0.019254154 -0.005156517 3
1354234497722346185;compass/AK8973 Magnetic Field;-0.25 -4.25 13.3125 3
1354234497722285185;accel/kr3dh;-0.14982383 -0.013620348 9.833891 3
1354234497722285185;linaccel/Linear Acceleration Sensor;-0.0679823 0.020093717 0.036743164 3
1354234497722255185;orientation/AK8973 Compass;183.26563 0.078125 -0.875 1
1354234497800777344;wifi;00:23:04:89:cd:b2,UNKNOWN,-64 00:17:df:a7:33:12,UNKNOWN,-77 28:cf:da:b8:1e:d5,UNKNOWN,-85 b8:c7:5d:08:bd:fd,UNKNOWN,-86 00:17:df:a8:60:62,UNKNOWN,-87 00:17:df:a7:4c:f2,UNKNOWN,-88 00:23:04:89:cd:b5,UNKNOWN,-64 00:17:df:a7:33:15,UNKNOWN,-77 00:22:90:39:07:15,UNKNOWN,-82 00:23:04:89:cd:b6,UNKNOWN,-63 00:23:04:89:cd:b0,UNKNOWN,-65 00:23:04:89:cd:b1,UNKNOWN,-65 00:17:df:a7:33:11,UNKNOWN,-77 00:22:90:39:07:16,UNKNOWN,-78 00:17:df:a7:33:16,UNKNOWN,-78 00:22:90:39:07:10,UNKNOWN,-83 00:17:df:a8:60:61,UNKNOWN,-86 00:17:df:a8:60:66,UNKNOWN,-87 00:22:90:39:65:b6,UNKNOWN,-91 00:23:04:89:c3:d6,UNKNOWN,-95 
1354234497818172185;accel/kr3dh;-0.05448139 -0.027240695 9.833891 3
1354234497818172185;compass/AK8973 Magnetic Field;0.25 -4.25 12.8125 3
1354234497818172185;linaccel/Linear Acceleration Sensor;0.025529843 -0.006425159 0.02729702 3
1354234497818141185;orientation/AK8973 Compass;183.32813 0.171875 -0.3125 1
1354234497911647185;accel/kr3dh;-0.027240695 -0.13620348 9.80665 3
1354234497911647185;compass/AK8973 Magnetic Field;0.75 -4.0 13.3125 3
1354234497911647185;linaccel/Linear Acceleration Sensor;0.0589924 -0.1197699 -0.01107502 3
1354234497911617185;orientation/AK8973 Compass;187.46875 0.78125 -0.171875 1
1354234498008113185;compass/AK8973 Magnetic Field;0.75 -3.4375 13.5625 3
1354234498008083185;accel/kr3dh;-0.095342435 -0.013620348 9.874752 3
1354234498008083185;linaccel/Linear Acceleration Sensor;-0.006454386 0.0110769505 0.048887253 3
1354234498008022185;orientation/AK8973 Compass;187.90625 0.078125 -0.5625 1
1354234498107173185;compass/AK8973 Magnetic Field;0.5 -3.75 13.3125 3
1354234498107112185;accel/kr3dh;-0.095342435 -0.05448139 9.738548 3
1354234498107112185;linaccel/Linear Acceleration Sensor;-0.013330333 -0.012012821 -0.09107399 3
1354234498107082185;orientation/AK8973 Compass;188.01563 0.3125 -0.5625 1
1354234498205043185;compass/AK8973 Magnetic Field;0.5 -3.75 13.8125 3
1354234498205013185;accel/kr3dh;-0.013620348 -0.05448139 9.697687 3
1354234498205013185;linaccel/Linear Acceleration Sensor;0.05972892 0.002564542 -0.12787628 3
1354234498204951185;orientation/AK8973 Compass;188.01563 0.34375 -0.078125 1
1354234498215000000;rawNmea;$GPGSV,4,1,13,03,33,241,25,06,33,220,26,18,34,066,18,19,42,277,27*71
1354234498216000000;rawNmea;$GPGSV,4,2,13,01,01,310,,09,11,042,,11,16,310,,14,77,160,*77
1354234498220000000;rawNmea;$GPGSV,4,3,13,21,19,127,,22,66,023,,24,14,049,,31,00,171,*79
1354234498222000000;rawNmea;$GPGSV,4,4,13,32,08,265,*43
1354234498226000000;rawNmea;$GPGGA,001457.0,3752.503460,N,12215.508684,W,1,03,500.0,126.2,M,-26.0,M,,*64
1354234498231000000;rawNmea;$GPVTG,307.6,T,307.6,M,0.0,N,0.0,K,A*23
1354234498233000000;rawNmea;$GPRMC,001457.0,A,3752.503460,N,12215.508684,W,0.0,307.6,301112,,,A*7C
1354234498235000000;rawNmea;$GPGSA,A,3,03,06,19,,,,,,,,,,500.0,500.0,500.0*3A
1354234497000000000;latLngE7Gps;378750576 -1222584780 213.0 -1.0 0.0
1354234498303859185;orientation/AK8973 Compass;187.6875 0.078125 -0.8125 1
1354234498303859185;accel/kr3dh;-0.13620348 -0.013620348 9.711308 3
1354234498303859185;compass/AK8973 Magnetic Field;0.0 -4.0 13.3125 3
1354234498303859185;linaccel/Linear Acceleration Sensor;-0.06722722 0.046835177 -0.09438133 3
1354234498398585185;compass/AK8973 Magnetic Field;-0.25 -4.25 12.8125 3
1354234498398555185;accel/kr3dh;-0.10896278 0.013620348 9.779409 3
1354234498398555185;linaccel/Linear Acceleration Sensor;-0.03948418 0.06769347 0.006673813 3
1354234498398524185;orientation/AK8973 Compass;183.14063 -0.078125 -0.640625 1
1354234498494685185;orientation/AK8973 Compass;183.1875 0.25 -0.3125 1
1354234498494685185;accel/kr3dh;-0.05448139 -0.040861044 9.738548 3
1354234498494685185;compass/AK8973 Magnetic Field;0.25 -4.75 12.8125 3
1354234498494685185;linaccel/Linear Acceleration Sensor;0.0215039 -2.4136528E-4 -0.0023117065 3
1354234498589198185;compass/AK8973 Magnetic Field;0.5 -4.5 12.8125 3
1354234498589168185;accel/kr3dh;-0.12258313 0.027240695 9.80665 3
1354234498589168185;linaccel/Linear Acceleration Sensor;-0.036870472 0.052340478 0.07961273 3
1354234498589107185;orientation/AK8973 Compass;183.5 -0.171875 -0.734375 1
1354234498698451905;wifi;00:17:df:a7:33:12,UNKNOWN,-79 28:cf:da:b8:1e:d5,UNKNOWN,-83 00:22:90:39:07:12,UNKNOWN,-84 00:17:df:a7:4c:f2,UNKNOWN,-84 00:22:90:39:65:b2,UNKNOWN,-88 00:23:04:89:cd:b5,UNKNOWN,-72 00:22:90:39:07:15,UNKNOWN,-77 00:17:df:a7:33:15,UNKNOWN,-78 00:23:04:89:bb:f5,UNKNOWN,-95 00:23:04:89:cd:b0,UNKNOWN,-66 00:17:df:a7:33:10,UNKNOWN,-77 00:22:90:39:07:10,UNKNOWN,-77 00:22:90:39:07:16,UNKNOWN,-78 00:17:df:a7:33:11,UNKNOWN,-78 00:17:df:a7:4c:f6,UNKNOWN,-81 00:22:90:39:07:11,UNKNOWN,-82 00:17:df:a7:4c:f1,UNKNOWN,-83 00:17:df:a8:60:60,UNKNOWN,-85 00:17:df:a8:60:61,UNKNOWN,-86 00:17:df:a7:4c:f0,UNKNOWN,-86 00:22:90:39:65:b1,UNKNOWN,-89 00:23:04:89:bb:f6,UNKNOWN,-95 00:23:04:89:bb:f1,UNKNOWN,-96 
1354234498702571185;compass/AK8973 Magnetic Field;0.25 -4.5 12.8125 3
1354234498702541185;accel/kr3dh;-0.040861044 -0.0 9.861132 3
1354234498702541185;linaccel/Linear Acceleration Sensor;0.052119266 0.009801345 0.12009716 3
1354234498702419185;orientation/AK8973 Compass;183.51563 0.0 -0.21875 1
1354234498805171185;compass/AK8973 Magnetic Field;0.75 -5.0 13.3125 3
1354234498805141185;orientation/AK8973 Compass;183.95313 0.171875 -0.734375 1
1354234498805141185;accel/kr3dh;-0.12258313 -0.027240695 9.779409 3
1354234498805141185;linaccel/Linear Acceleration Sensor;-0.030076064 -0.026488604 0.009738922 3
1354234498899165185;orientation/AK8973 Compass;184.32813 0.390625 -0.3125 1
1354234498899165185;accel/kr3dh;-0.05448139 -0.06810174 9.79303 3
1354234498899165185;compass/AK8973 Magnetic Field;0.75 -4.75 14.125 3
1354234498899165185;linaccel/Linear Acceleration Sensor;0.03393477 -0.069617786 -0.0053606033 3
1354234498995967185;compass/AK8973 Magnetic Field;0.5 -5.0 14.375 3
1354234498995906185;accel/kr3dh;-0.095342435 -0.05448139 9.779409 3
1354234498995906185;linaccel/Linear Acceleration Sensor;-0.011045493 -0.048376314 -0.036201477 3
1354234498995876185;orientation/AK8973 Compass;184.51563 0.3125 -0.5625 1
1354234499091731185;accel/kr3dh;-0.027240695 -0.013620348 9.874752 3
1354234499091731185;compass/AK8973 Magnetic Field;0.75 -4.75 14.125 3
1354234499091731185;linaccel/Linear Acceleration Sensor;0.053938493 0.008579743 0.058179855 3
1354234499091701185;orientation/AK8973 Compass;184.82813 0.078125 -0.171875 1
1354234499188380185;compass/AK8973 Magnetic Field;0.0 -4.25 14.125 3
1354234499188319185;accel/kr3dh;-0.05448139 0.013620348 9.861132 3
1354234499188319185;linaccel/Linear Acceleration Sensor;0.021899085 0.050997637 0.049043655 3
1354234499188289185;orientation/AK8973 Compass;184.59375 -0.078125 -0.3125 1
1354234499216000000;rawNmea;$GPGSV,4,1,13,03,33,241,25,06,33,220,24,18,34,066,18,19,42,277,22*76
1354234499217000000;rawNmea;$GPGSV,4,2,13,01,01,310,,09,11,042,,11,16,310,,14,77,160,*77
1354234499219000000;rawNmea;$GPGSV,4,3,13,21,19,127,,22,66,023,,24,14,049,,31,00,171,*79
1354234499223000000;rawNmea;$GPGSV,4,4,13,32,08,265,*43
1354234499228000000;rawNmea;$GPGGA,001458.0,3752.503466,N,12215.508684,W,1,03,500.0,126.2,M,-26.0,M,,*6D
1354234499231000000;rawNmea;$GPVTG,307.6,T,307.6,M,0.0,N,0.0,K,A*23
1354234499233000000;rawNmea;$GPRMC,001458.0,A,3752.503466,N,12215.508684,W,0.0,307.6,301112,,,A*75
1354234499235000000;rawNmea;$GPGSA,A,3,03,06,19,,,,,,,,,,500.0,500.0,500.0*3A
1354234498000000000;latLngE7Gps;378750577 -1222584780 218.0 -1.0 0.0
1354234499285182185;compass/AK8973 Magnetic Field;0.0 -4.5 13.3125 3
1354234499285152185;orientation/AK8973 Compass;184.4375 0.25 -0.734375 1
1354234499285152185;accel/kr3dh;-0.12258313 -0.040861044 9.697687 3
1354234499285152185;linaccel/Linear Acceleration Sensor;-0.053675838 -1.2288988E-4 -0.11652279 3
1354234499381465185;compass/AK8973 Magnetic Field;0.25 -4.75 12.5625 3
1354234499381435185;orientation/AK8973 Compass;184.375 0.078125 -0.171875 1
1354234499381435185;accel/kr3dh;-0.027240695 -0.013620348 9.779409 3
1354234499381435185;linaccel/Linear Acceleration Sensor;0.036235057 0.018781364 -0.03806877 3
1354234499483974185;compass/AK8973 Magnetic Field;0.0 -4.75 12.8125 3
1354234499483943185;accel/kr3dh;-0.12258313 -0.0 9.779409 3
1354234499483943185;linaccel/Linear Acceleration Sensor;-0.05786418 0.020834342 -0.028055191 3
1354234499483882185;orientation/AK8973 Compass;184.21875 0.0 -0.734375 1
1354234499589260009;wifi;00:23:04:89:cd:b2,UNKNOWN,-63 00:17:df:a7:33:12,UNKNOWN,-77 00:22:90:39:07:12,UNKNOWN,-78 28:cf:da:b8:1e:d5,UNKNOWN,-86 00:17:df:a7:4c:f2,UNKNOWN,-89 00:23:04:89:cd:b5,UNKNOWN,-62 00:22:90:39:07:15,UNKNOWN,-78 00:17:df:a7:33:15,UNKNOWN,-77 00:22:90:39:65:b5,UNKNOWN,-86 00:23:04:89:cd:b0,UNKNOWN,-68 00:23:04:89:cd:b6,UNKNOWN,-73 00:17:df:a7:33:16,UNKNOWN,-76 00:17:df:a7:33:11,UNKNOWN,-77 00:17:df:a7:33:10,UNKNOWN,-77 00:22:90:39:07:10,UNKNOWN,-78 00:22:90:39:07:11,UNKNOWN,-78 00:22:90:39:07:16,UNKNOWN,-79 00:17:df:a7:4c:f6,UNKNOWN,-83 00:17:df:a7:4c:f1,UNKNOWN,-84 00:13:5f:55:d8:b0,UNKNOWN,-87 00:22:90:39:65:b0,UNKNOWN,-88 00:17:df:a8:60:66,UNKNOWN,-89 
1354234499580074185;compass/AK8973 Magnetic Field;0.5 -4.75 12.3125 3
1354234499580043185;accel/kr3dh;-0.027240695 -0.05448139 9.779409 3
1354234499580043185;linaccel/Linear Acceleration Sensor;0.042516023 -0.039930325 -0.008780479 3
1354234499579982185;orientation/AK8973 Compass;184.35938 0.3125 -0.171875 1
1354234499678371185;orientation/AK8973 Compass;184.57813 0.5625 -0.3125 1
1354234499678371185;accel/kr3dh;-0.05448139 -0.095342435 9.929234 3
1354234499678371185;compass/AK8973 Magnetic Field;0.5 -4.25 12.8125 3
1354234499678371185;linaccel/Linear Acceleration Sensor;0.018875536 -0.079677224 0.15464497 3
1354234499770717185;orientation/AK8973 Compass;184.85938 0.0 -0.390625 1
1354234499770717185;accel/kr3dh;-0.06810174 -0.0 9.833891 3
1354234499770717185;compass/AK8973 Magnetic Field;0.5 -3.75 13.3125 3
1354234499770717185;linaccel/Linear Acceleration Sensor;0.0035027787 0.024523098 0.053866386 3
1354234499864009185;compass/AK8973 Magnetic Field;0.75 -4.0 13.0625 3
1354234499863979185;accel/kr3dh;-0.06810174 -0.027240695 9.820271 3
1354234499863979185;linaccel/Linear Acceleration Sensor;-0.002510883 0.010196647 0.015764236 3
1354234499863948185;orientation/AK8973 Compass;185.29688 0.171875 -0.390625 1
1354234499964107185;compass/AK8973 Magnetic Field;0.5 -3.75 13.5625 3
1354234499964046185;accel/kr3dh;-0.12258313 -0.0 9.779409 3
1354234499964046185;linaccel/Linear Acceleration Sensor;-0.061181538 0.04430298 -0.05388832 3
1354234499964015185;orientation/AK8973 Compass;185.60938 0.0 -0.734375 1
1354234500060359185;orientation/AK8973 Compass;185.89063 0.171875 -0.484375 1
1354234500060359185;accel/kr3dh;-0.08172209 -0.027240695 9.779409 3
1354234500060359185;compass/AK8973 Magnetic Field;0.5 -3.4375 13.0625 3
1354234500060359185;linaccel/Linear Acceleration Sensor;-0.016459629 0.0119204875 -0.063715935 3
1354234500160457185;accel/kr3dh;-0.095342435 -0.12258313 9.833891 3
1354234500160457185;compass/AK8973 Magnetic Field;0.5 -3.1875 12.8125 3
1354234500160457185;linaccel/Linear Acceleration Sensor;-0.018248633 -0.09397542 0.003665924 3
1354234500160426185;orientation/AK8973 Compass;186.25 0.734375 -0.5625 1
1354234500213000000;rawNmea;$GPGSV,4,1,13,03,33,241,24,06,33,220,25,18,34,066,18,19,42,277,22*76
1354234500219000000;rawNmea;$GPGSV,4,2,13,01,01,310,,09,11,042,,11,16,310,,14,77,160,*77
1354234500221000000;rawNmea;$GPGSV,4,3,13,21,19,127,,22,66,023,,24,14,049,,31,00,171,*79
1354234500223000000;rawNmea;$GPGSV,4,4,13,32,08,265,*43
1354234500231000000;rawNmea;$GPGGA,001459.0,3752.503473,N,12215.508683,W,1,03,500.0,126.2,M,-26.0,M,,*6F
1354234500233000000;rawNmea;$GPVTG,307.6,T,307.6,M,0.0,N,0.0,K,A*23
1354234500236000000;rawNmea;$GPRMC,001459.0,A,3752.503473,N,12215.508683,W,0.0,307.6,301112,,,A*77
1354234500238000000;rawNmea;$GPGSA,A,3,03,06,19,,,,,,,,,,500.0,500.0,500.0*3A
1354234499000000000;latLngE7Gps;378750578 -1222584780 225.0 -1.0 0.0
1354234500254359185;orientation/AK8973 Compass;186.25 -0.078125 -0.5625 1
1354234500254359185;accel/kr3dh;-0.095342435 0.013620348 9.820271 3
1354234500254359185;compass/AK8973 Magnetic Field;0.25 -3.4375 13.3125 3
1354234500254359185;linaccel/Linear Acceleration Sensor;-0.006498687 0.039625417 0.0085840225 3
1354234500348170185;orientation/AK8973 Compass;186.59375 0.46875 -0.8125 1
1354234500348170185;accel/kr3dh;-0.13620348 -0.08172209 9.643207 3
1354234500348170185;compass/AK8973 Magnetic Field;0.5 -3.4375 13.0625 3
1354234500348170185;linaccel/Linear Acceleration Sensor;-0.039623767 -0.047888093 -0.15561104 3
1354234500444209185;compass/AK8973 Magnetic Field;0.0 -3.75 13.0625 3
1354234500444179185;accel/kr3dh;-0.040861044 -0.06810174 9.80665 3
1354234500444179185;linaccel/Linear Acceleration Sensor;0.059847686 -0.023062307 0.018123627 3
1354234500444118185;orientation/AK8973 Compass;186.23438 0.390625 -0.25 1
1354234500539363185;accel/kr3dh;-0.08172209 -0.06810174 9.874752 3
1354234500539363185;compass/AK8973 Magnetic Field;-0.5 -4.5 12.8125 3
1354234500539363185;linaccel/Linear Acceleration Sensor;0.01940927 -0.014328644 0.099472046 3
1354234500539333185;orientation/AK8973 Compass;180.57813 0.390625 -0.484375 1
1354234500642513184;wifi;00:23:04:89:cd:b2,UNKNOWN,-63 00:17:df:a7:33:12,UNKNOWN,-77 00:22:90:39:07:12,UNKNOWN,-79 b8:c7:5d:08:bd:fd,UNKNOWN,-81 00:17:df:a8:60:62,UNKNOWN,-85 00:17:df:a7:4c:f2,UNKNOWN,-86 00:23:04:89:cd:b5,UNKNOWN,-66 00:17:df:a7:33:15,UNKNOWN,-77 00:17:df:a8:60:65,UNKNOWN,-86 00:17:df:a7:4c:f5,UNKNOWN,-87 00:23:04:89:cd:b1,UNKNOWN,-66 00:23:04:89:cd:b0,UNKNOWN,-72 00:23:04:89:cd:b6,UNKNOWN,-73 00:17:df:a7:33:11,UNKNOWN,-77 00:17:df:a7:33:10,UNKNOWN,-77 00:17:df:a7:33:16,UNKNOWN,-77 00:22:90:39:07:10,UNKNOWN,-78 00:22:90:39:07:16,UNKNOWN,-78 00:22:90:39:07:11,UNKNOWN,-80 00:17:df:a8:60:61,UNKNOWN,-84 00:17:df:a7:4c:f0,UNKNOWN,-86 00:17:df:a8:60:60,UNKNOWN,-87 00:17:df:a7:4c:f1,UNKNOWN,-88 00:17:df:a8:60:66,UNKNOWN,-88 
1354234500635158185;compass/AK8973 Magnetic Field;-0.25 -4.25 12.0625 3
1354234500635127185;accel/kr3dh;-0.040861044 -0.05448139 9.711308 3
1354234500635127185;linaccel/Linear Acceleration Sensor;0.054270927 0.0058504455 -0.056185722 3
1354234500635097185;orientation/AK8973 Compass;180.375 0.3125 -0.25 1
1354234500744991185;compass/AK8973 Magnetic Field;-0.5 -4.5 12.0625 3
1354234500744960185;orientation/AK8973 Compass;180.03125 0.171875 -0.484375 1
1354234500744960185;accel/kr3dh;-0.08172209 -0.027240695 9.779409 3
1354234500744960185;linaccel/Linear Acceleration Sensor;-0.0010370836 0.03669761 0.0059108734 3
1354234500839320185;orientation/AK8973 Compass;180.125 0.390625 -0.5625 1
1354234500839320185;accel/kr3dh;-0.095342435 -0.06810174 9.670447 3
1354234500839320185;compass/AK8973 Magnetic Field;0.0 -4.5 12.0625 3
1354234500839320185;linaccel/Linear Acceleration Sensor;-0.026457548 -0.006045386 -0.107336044 3
1354234500934535185;compass/AK8973 Magnetic Field;0.25 -4.25 12.5625 3
1354234500934474185;accel/kr3dh;-0.10896278 -0.027240695 9.820271 3
1354234500934474185;linaccel/Linear Acceleration Sensor;-0.04404688 0.028589582 0.049603462 3
1354234500934444185;orientation/AK8973 Compass;180.45313 0.171875 -0.640625 1
1354234501030818185;compass/AK8973 Magnetic Field;-0.25 -4.25 13.0625 3
1354234501030788185;accel/kr3dh;-0.13620348 0.027240695 9.861132 3
1354234501030788185;linaccel/Linear Acceleration Sensor;-0.06420035 0.07523702 0.10259247 3
1354234501030727185;orientation/AK8973 Compass;180.35938 -0.171875 -0.78125 1
1354234501132045185;compass/AK8973 Magnetic Field;-0.25 -4.25 13.3125 3
1354234501132014185;accel/kr3dh;-0.08172209 -0.0 9.861132 3
1354234501132014185;linaccel/Linear Acceleration Sensor;0.006633699 0.036630023 0.10010433 3
1354234501131984185;orientation/AK8973 Compass;180.21875 0.0 -0.484375 1
1354234501215000000;rawNmea;$GPGSV,4,1,13,03,33,241,24,06,33,220,26,18,34,066,17,19,42,277,22*7A
1354234501221000000;rawNmea;$GPGSV,4,2,13,01,01,310,,09,11,042,,11,16,310,,14,77,160,*77
1354234501227000000;rawNmea;$GPGSV,4,3,13,21,19,127,,22,66,023,,24,14,049,,31,00,171,*79
1354234501231929185;compass/AK8973 Magnetic Field;-0.5 -4.75 13.5625 3
1354234501231898185;accel/kr3dh;-0.08172209 -0.08172209 9.765789 3
1354234501231898185;linaccel/Linear Acceleration Sensor;0.022048049 -0.059945498 -0.020440102 3
1354234501231868185;orientation/AK8973 Compass;179.90625 0.484375 -0.484375 1
1354234501245000000;rawNmea;$GPGSV,4,4,13,32,08,265,*43
1354234501252000000;rawNmea;$GPGGA,001500.0,3752.503476,N,12215.508685,W,1,04,5.2,126.2,M,-26.0,M,,*64
1354234501254000000;rawNmea;$GPVTG,307.6,T,307.6,M,0.0,N,0.0,K,A*23
1354234501257000000;rawNmea;$GPRMC,001500.0,A,3752.503476,N,12215.508685,W,0.0,307.6,301112,,,A*79
1354234501260000000;rawNmea;$GPGSA,A,3,03,06,18,19,,,,,,,,,24.3,5.2,23.7*32
1354234500000000000;latLngE7Gps;378750579 -1222584780 205.0 -1.0 0.0
1354234501328456185;compass/AK8973 Magnetic Field;0.0 -5.0 13.3125 3
1354234501328426185;accel/kr3dh;-0.14982383 -0.05448139 9.80665 3
1354234501328426185;linaccel/Linear Acceleration Sensor;-0.039599955 -0.041961115 -0.009044647 3
1354234501328395185;orientation/AK8973 Compass;180.0625 0.3125 -0.875 1
1354234501459285645;wifi;00:23:04:89:cd:b2,UNKNOWN,-74 00:17:df:a7:33:12,UNKNOWN,-76 b8:c7:5d:08:bd:fd,UNKNOWN,-83 00:17:df:a7:4c:f2,UNKNOWN,-85 00:22:90:39:07:12,UNKNOWN,-86 28:cf:da:b8:1e:d5,UNKNOWN,-86 00:22:90:39:65:b2,UNKNOWN,-90 00:23:04:89:cd:b5,UNKNOWN,-64 00:17:df:a8:60:65,UNKNOWN,-85 00:23:04:89:cd:b6,UNKNOWN,-63 00:23:04:89:cd:b1,UNKNOWN,-64 00:23:04:89:cd:b0,UNKNOWN,-64 00:22:90:39:07:10,UNKNOWN,-76 00:17:df:a7:33:16,UNKNOWN,-76 00:17:df:a7:33:10,UNKNOWN,-77 00:22:90:39:07:16,UNKNOWN,-79 00:17:df:a7:33:11,UNKNOWN,-76 00:13:5f:55:d8:b0,UNKNOWN,-85 00:17:df:a8:60:61,UNKNOWN,-85 00:17:df:a8:60:66,UNKNOWN,-86 00:22:90:39:65:b6,UNKNOWN,-90 
1354234501453059185;compass/AK8973 Magnetic Field;0.25 -4.75 13.3125 3
1354234501453029185;accel/kr3dh;-0.13620348 0.08172209 9.80665 3
1354234501453029185;linaccel/Linear Acceleration Sensor;-0.026224256 0.10030426 -0.022035599 3
1354234501452998185;orientation/AK8973 Compass;180.375 -0.46875 -0.78125 1
1354234501547847185;accel/kr3dh;-0.13620348 -0.05448139 9.80665 3
1354234501547847185;compass/AK8973 Magnetic Field;0.25 -4.75 12.8125 3
1354234501547847185;linaccel/Linear Acceleration Sensor;-0.021587119 -0.030529877 -0.01540947 3
1354234501547816185;orientation/AK8973 Compass;180.67188 0.3125 -0.78125 1
1354234501643398185;compass/AK8973 Magnetic Field;0.25 -4.75 12.5625 3
1354234501643367185;accel/kr3dh;-0.12258313 -0.06810174 9.80665 3
1354234501643367185;linaccel/Linear Acceleration Sensor;0.0021144375 -0.046134446 -0.0021409988 3
1354234501643336185;orientation/AK8973 Compass;180.9375 0.390625 -0.734375 1
1354234501739192185;accel/kr3dh;-0.06810174 -0.013620348 9.765789 3
1354234501739192185;compass/AK8973 Magnetic Field;-0.25 -4.5 12.8125 3
1354234501739192185;linaccel/Linear Acceleration Sensor;0.06436325 0.0050257286 -0.034370422 3
1354234501739162185;orientation/AK8973 Compass;180.75 0.078125 -0.390625 1
1354234501845729185;accel/kr3dh;-0.027240695 -0.040861044 9.738548 3
1354234501845729185;compass/AK8973 Magnetic Field;0.25 -4.5 13.0625 3
1354234501845729185;linaccel/Linear Acceleration Sensor;0.1003664 -0.017786812 -0.05642891 3
1354234501845699185;orientation/AK8973 Compass;180.9375 0.25 -0.171875 1
1354234501941920185;orientation/AK8973 Compass;185.59375 0.078125 -0.484375 1
1354234501941920185;accel/kr3dh;-0.08172209 -0.013620348 9.697687 3
1354234501941920185;compass/AK8973 Magnetic Field;0.75 -4.75 13.0625 3
1354234501941920185;linaccel/Linear Acceleration Sensor;0.027358003 0.016659543 -0.08795357 3
1354234502042598185;compass/AK8973 Magnetic Field;0.75 -4.5 13.3125 3
1354234502042567185;accel/kr3dh;-0.095342435 -0.0 9.861132 3
1354234502042567185;linaccel/Linear Acceleration Sensor;-0.012804531 0.033510283 0.092588425 3
1354234502042445185;orientation/AK8973 Compass;185.9375 0.0 -0.5625 1
1354234502137172185;compass/AK8973 Magnetic Field;1.0 -4.25 13.0625 3
1354234502137141185;orientation/AK8973 Compass;190.59375 0.484375 -0.5625 1
1354234502137141185;accel/kr3dh;-0.095342435 -0.08172209 9.820271 3
1354234502137141185;linaccel/Linear Acceleration Sensor;-0.029736869 -0.05084212 0.06399059 3
1354234502213000000;rawNmea;$GPGSV,4,1,13,03,33,241,25,06,33,220,27,18,34,066,17,19,42,277,22*7A
1354234502218000000;rawNmea;$GPGSV,4,2,13,01,01,310,,09,11,042,,11,16,310,,14,77,160,*77
1354234502220000000;rawNmea;$GPGSV,4,3,13,21,19,127,,22,66,023,,24,14,049,,31,00,171,*79
1354234502221000000;rawNmea;$GPGSV,4,4,13,32,08,265,*43
1354234502231349185;compass/AK8973 Magnetic Field;1.0 -4.5 12.8125 3
1354234502231288185;accel/kr3dh;-0.10896278 -0.027240695 9.765789 3
1354234502231288185;linaccel/Linear Acceleration Sensor;-0.044225134 1.8855557E-5 0.005296707 3
1354234502231258185;orientation/AK8973 Compass;190.82813 0.171875 -0.640625 1
1354234502239000000;rawNmea;$GPGGA,001501.0,3752.503497,N,12215.508686,W,1,04,5.2,126.2,M,-26.0,M,,*69
1354234502243000000;rawNmea;$GPVTG,307.6,T,307.6,M,0.0,N,0.0,K,A*23
1354234502245000000;rawNmea;$GPRMC,001501.0,A,3752.503497,N,12215.508686,W,0.0,307.6,301112,,,A*74
1354234502247000000;rawNmea;$GPGSA,A,3,03,06,18,19,,,,,,,,,24.3,5.2,23.7*32
1354234501000000000;latLngE7Gps;378750582 -1222584780 209.0 -1.0 0.0
1354234502355739502;wifi;00:23:04:89:cd:b2,UNKNOWN,-65 00:22:90:39:07:12,UNKNOWN,-79 00:17:df:a7:4c:f2,UNKNOWN,-85 00:23:04:89:cd:b5,UNKNOWN,-65 00:17:df:a7:33:15,UNKNOWN,-77 00:22:90:39:07:15,UNKNOWN,-86 00:23:04:89:cd:b0,UNKNOWN,-64 00:23:04:89:cd:b6,UNKNOWN,-65 00:23:04:89:cd:b1,UNKNOWN,-74 00:17:df:a7:33:11,UNKNOWN,-76 00:17:df:a7:33:16,UNKNOWN,-76 00:17:df:a7:33:10,UNKNOWN,-77 00:22:90:39:07:11,UNKNOWN,-79 00:13:5f:55:d8:b0,UNKNOWN,-84 00:22:90:39:07:16,UNKNOWN,-85 00:17:df:a7:4c:f6,UNKNOWN,-86 00:22:90:39:07:10,UNKNOWN,-86 00:17:df:a8:60:66,UNKNOWN,-88 00:22:90:39:65:b1,UNKNOWN,-90 
1354234502329707185;compass/AK8973 Magnetic Field;0.75 -4.25 12.5625 3
1354234502329677185;orientation/AK8973 Compass;190.90625 0.46875 -0.640625 1
1354234502329677185;accel/kr3dh;-0.10896278 -0.08172209 9.765789 3
1354234502329677185;linaccel/Linear Acceleration Sensor;-0.031996466 -0.052272364 -0.0129032135 3
1354234502438960185;orientation/AK8973 Compass;190.6875 0.8125 -0.171875 1
1354234502438960185;accel/kr3dh;-0.027240695 -0.13620348 9.602345 3
1354234502438960185;compass/AK8973 Magnetic Field;0.5 -4.25 12.5625 3
1354234502438960185;linaccel/Linear Acceleration Sensor;0.06546189 -0.093998194 -0.18654442 3
1354234502534694185;compass/AK8973 Magnetic Field;0.75 -4.5 12.3125 3
1354234502534663185;accel/kr3dh;-0.05448139 -0.027240695 9.847511 3
1354234502534663185;linaccel/Linear Acceleration Sensor;0.042803984 0.03224908 0.072050095 3
1354234502534602185;orientation/AK8973 Compass;190.67188 0.171875 -0.3125 1
1354234502630367185;compass/AK8973 Magnetic Field;0.75 -4.75 12.5625 3
1354234502630336185;accel/kr3dh;-0.05448139 -0.08172209 9.833891 3
1354234502630336185;linaccel/Linear Acceleration Sensor;0.033432636 -0.005238086 0.08393097 3
1354234502630305185;orientation/AK8973 Compass;190.625 0.484375 -0.3125 1
1354234502729732185;compass/AK8973 Magnetic Field;0.5 -5.0 13.0625 3
1354234502729701185;accel/kr3dh;-0.12258313 -0.05448139 9.779409 3
1354234502729701185;linaccel/Linear Acceleration Sensor;-0.051319383 0.029870916 0.03879547 3
1354234502729640185;orientation/AK8973 Compass;190.4375 0.3125 -0.734375 1
1354234502837825185;orientation/AK8973 Compass;190.64063 0.078125 -0.390625 1
1354234502837825185;accel/kr3dh;-0.06810174 -0.013620348 9.765789 3
1354234502837825185;compass/AK8973 Magnetic Field;1.0 -4.5 13.0625 3
1354234502837825185;linaccel/Linear Acceleration Sensor;-0.006088745 0.06455403 0.004507065 3
1354234502929805185;accel/kr3dh;-0.095342435 -0.027240695 9.765789 3
1354234502929805185;compass/AK8973 Magnetic Field;0.5 -4.25 13.0625 3
1354234502929805185;linaccel/Linear Acceleration Sensor;-0.029468365 0.038551003 -0.017458916 3
1354234502929774185;orientation/AK8973 Compass;190.5 0.171875 -0.5625 1
1354234503023647185;compass/AK8973 Magnetic Field;0.25 -4.0 13.0625 3
1354234503023616185;accel/kr3dh;-0.08172209 -0.08172209 9.711308 3
1354234503023616185;linaccel/Linear Acceleration Sensor;-0.0046172068 -0.031206705 -0.080672264 3
1354234503023555185;orientation/AK8973 Compass;190.17188 0.484375 -0.484375 1
1354234503118648185;orientation/AK8973 Compass;189.875 -0.171875 -0.5625 1
1354234503118648185;accel/kr3dh;-0.095342435 0.027240695 9.670447 3
1354234503118648185;compass/AK8973 Magnetic Field;0.25 -4.0 12.8125 3
1354234503118648185;linaccel/Linear Acceleration Sensor;-0.008681975 0.06566013 -0.11173248 3
1354234503213000000;rawNmea;$GPGSV,4,1,13,03,33,241,24,06,33,220,27,14,77,160,15,18,34,066,17*71
1354234503220363185;compass/AK8973 Magnetic Field;0.25 -4.5 12.0625 3
1354234503220332185;accel/kr3dh;-0.10896278 -0.0 9.861132 3
1354234503220332185;linaccel/Linear Acceleration Sensor;-0.017551318 0.031080402 0.1034565 3
1354234503220302185;orientation/AK8973 Compass;189.5625 0.0 -0.640625 1
1354234503230000000;rawNmea;$GPGSV,4,2,13,19,42,277,26,01,01,310,,09,11,042,,11,16,310,*7D
1354234503233000000;rawNmea;$GPGSV,4,3,13,21,19,127,,22,66,023,,24,14,049,,31,00,171,*79
1354234503235000000;rawNmea;$GPGSV,4,4,13,32,08,265,*43
1354234503242000000;rawNmea;$GPGGA,001502.0,3752.503515,N,12215.508688,W,1,05,2.0,126.2,M,-26.0,M,,*6B
1354234503245000000;rawNmea;$GPVTG,307.6,T,307.6,M,0.0,N,0.0,K,A*23
1354234503248000000;rawNmea;$GPRMC,001502.0,A,3752.503515,N,12215.508688,W,0.0,307.6,301112,,,A*72
1354234503252000000;rawNmea;$GPGSA,A,3,03,06,14,18,19,,,,,,,,3.4,2.0,2.7*33
1354234502000000000;latLngE7Gps;378750585 -1222584781 179.0 -1.0 0.0
1354234503296687989;wifi;00:23:04:89:cd:b2,UNKNOWN,-73 b8:c7:5d:08:bd:fd,UNKNOWN,-83 00:17:df:a8:60:62,UNKNOWN,-84 00:17:df:a7:4c:f2,UNKNOWN,-85 00:22:90:39:07:12,UNKNOWN,-86 00:17:df:a7:33:15,UNKNOWN,-75 00:17:df:a8:60:65,UNKNOWN,-84 00:22:90:39:65:b5,UNKNOWN,-92 00:23:04:89:cd:b0,UNKNOWN,-65 00:23:04:89:cd:b6,UNKNOWN,-65 00:17:df:a7:33:11,UNKNOWN,-75 00:17:df:a7:33:10,UNKNOWN,-77 00:17:df:a7:33:16,UNKNOWN,-77 00:22:90:39:07:16,UNKNOWN,-80 00:22:90:39:07:10,UNKNOWN,-80 00:22:90:39:07:11,UNKNOWN,-86 00:13:5f:55:d8:b0,UNKNOWN,-86 00:17:df:a8:60:66,UNKNOWN,-87 
1354234503319728185;compass/AK8973 Magnetic Field;0.5 -4.5 12.5625 3
1354234503319698185;orientation/AK8973 Compass;189.45313 0.5625 -0.484375 1
1354234503319698185;accel/kr3dh;-0.08172209 -0.095342435 9.80665 3
1354234503319698185;linaccel/Linear Acceleration Sensor;0.011778176 -0.07064547 0.06704807 3
1354234503416164185;compass/AK8973 Magnetic Field;0.5 -4.0 12.3125 3
1354234503416133185;accel/kr3dh;0.0 0.013620348 9.874752 3
1354234503416133185;linaccel/Linear Acceleration Sensor;0.09351781 0.033874463 0.12885857 3
1354234503416103185;orientation/AK8973 Compass;189.3125 -0.078125 -0.0 1
1354234503512233185;accel/kr3dh;-0.14982383 -0.08172209 9.79303 3
1354234503512233185;compass/AK8973 Magnetic Field;0.5 -3.75 12.0625 3
1354234503512233185;linaccel/Linear Acceleration Sensor;-0.061598368 -0.059631325 0.017203331 3
1354234503512202185;orientation/AK8973 Compass;189.39063 0.46875 -0.875 1
1354234503612483185;compass/AK8973 Magnetic Field;0.25 -3.1875 13.0625 3
1354234503612453185;accel/kr3dh;-0.05448139 -0.08172209 9.697687 3
1354234503612453185;linaccel/Linear Acceleration Sensor;0.02430905 -0.051024348 -0.11220837 3
1354234503612422185;orientation/AK8973 Compass;189.1875 0.484375 -0.34375 1
1354234503708492185;compass/AK8973 Magnetic Field;0.0 -3.1875 12.8125 3
1354234503708461185;orientation/AK8973 Compass;188.875 -0.078125 -1.03125 1
1354234503708461185;accel/kr3dh;-0.17706452 0.013620348 9.833891 3
1354234503708461185;linaccel/Linear Acceleration Sensor;-0.10179794 0.055493347 0.0119485855 3
1354234503801753185;compass/AK8973 Magnetic Field;0.0 -3.75 12.8125 3
1354234503801723185;accel/kr3dh;-0.16344418 -0.10896278 9.847511 3
1354234503801723185;linaccel/Linear Acceleration Sensor;-0.07968684 -0.057925336 0.036073685 3
1354234503801692185;orientation/AK8973 Compass;188.53125 0.640625 -0.953125 1
1354234503904567185;compass/AK8973 Magnetic Field;-0.25 -4.0 13.3125 3
1354234503904506185;accel/kr3dh;-0.10896278 -0.040861044 9.711308 3
1354234503904506185;linaccel/Linear Acceleration Sensor;-0.002530709 0.014449935 -0.08343506 3
1354234503904475185;orientation/AK8973 Compass;183.53125 0.25 -0.640625 1
1354234504000117185;orientation/AK8973 Compass;183.25 0.3125 -0.78125 1
1354234504000117185;accel/kr3dh;-0.13620348 -0.05448139 9.820271 3
1354234504000117185;compass/AK8973 Magnetic Field;-0.25 -4.5 12.8125 3
1354234504000117185;linaccel/Linear Acceleration Sensor;-0.0067451596 0.0022597648 0.0319767 3
1354234504094081185;compass/AK8973 Magnetic Field;-0.25 -4.75 13.0625 3
1354234504094051185;orientation/AK8973 Compass;183.0 0.3125 -0.875 1
1354234504094051185;accel/kr3dh;-0.14982383 -0.05448139 9.80665 3
1354234504094051185;linaccel/Linear Acceleration Sensor;-0.006659314 0.0031687208 0.019062996 3
1354234504161159422;wifi;00:17:df:a7:33:12,UNKNOWN,-75 00:17:df:a7:4c:f2,UNKNOWN,-84 28:cf:da:b8:1e:d5,UNKNOWN,-84 00:22:90:39:07:12,UNKNOWN,-86 00:17:df:a7:33:15,UNKNOWN,-77 00:22:90:39:07:15,UNKNOWN,-79 00:23:04:89:cd:b1,UNKNOWN,-66 00:17:df:a7:33:10,UNKNOWN,-76 00:17:df:a7:33:16,UNKNOWN,-76 00:22:90:39:07:10,UNKNOWN,-80 00:17:df:a7:33:11,UNKNOWN,-76 00:22:90:39:07:16,UNKNOWN,-81 00:22:90:39:07:11,UNKNOWN,-87 00:17:df:a7:4c:f6,UNKNOWN,-87 00:17:df:a7:4c:f1,UNKNOWN,-88 
1354234504187862185;compass/AK8973 Magnetic Field;-0.5 -4.5 12.8125 3
1354234504187831185;orientation/AK8973 Compass;179.0 0.171875 -0.484375 1
1354234504187831185;accel/kr3dh;-0.08172209 -0.027240695 9.833891 3
1354234504187831185;linaccel/Linear Acceleration Sensor;0.06348764 0.029904803 0.04481697 3
1354234504213000000;rawNmea;$GPGSV,4,1,13,03,33,241,24,06,33,220,27,14,77,160,15,18,34,066,17*71
1354234504214000000;rawNmea;$GPGSV,4,2,13,19,42,277,26,01,01,310,,09,11,042,,11,16,310,*7D
1354234504219000000;rawNmea;$GPGSV,4,3,13,21,19,127,,22,66,023,,24,14,049,,31,00,171,*79
1354234504220000000;rawNmea;$GPGSV,4,4,13,32,08,265,*43
1354234504228000000;rawNmea;$GPGGA,001503.0,3752.503531,N,12215.508689,W,1,05,2.0,126.2,M,-26.0,M,,*6D
1354234504233000000;rawNmea;$GPVTG,307.6,T,307.6,M,0.0,N,0.0,K,A*23
1354234504237000000;rawNmea;$GPRMC,001503.0,A,3752.503531,N,12215.508689,W,0.0,307.6,301112,,,A*74
1354234504242000000;rawNmea;$GPGSA,A,3,03,06,14,18,19,,,,,,,,3.4,2.0,2.7*33
1354234503000000000;latLngE7Gps;378750588 -1222584781 161.0 -1.0 0.0
1354234504282344185;compass/AK8973 Magnetic Field;-0.25 -4.5 13.0625 3
1354234504282314185;accel/kr3dh;-0.095342435 -0.027240695 9.901993 3
1354234504282314185;linaccel/Linear Acceleration Sensor;0.043218218 0.02649205 0.105584145 3
1354234504282283185;orientation/AK8973 Compass;178.96875 0.171875 -0.5625 1
1354234504378200185;orientation/AK8973 Compass;178.92188 0.0 -0.5625 1
1354234504378200185;accel/kr3dh;-0.095342435 -0.0 9.765789 3
1354234504378200185;compass/AK8973 Magnetic Field;-0.25 -4.0 13.0625 3
1354234504378200185;linaccel/Linear Acceleration Sensor;0.030315049 0.046436526 -0.046277046 3
1354234504472224185;orientation/AK8973 Compass;178.90625 0.21875 -0.703125 1
1354234504472224185;accel/kr3dh;-0.12258313 -0.040861044 9.888372 3
1354234504472224185;compass/AK8973 Magnetic Field;-0.25 -3.75 12.8125 3
1354234504472224185;linaccel/Linear Acceleration Sensor;-0.011544108 -0.004629042 0.0585804 3
1354234504573329185;compass/AK8973 Magnetic Field;0.0 -4.25 13.0625 3
1354234504573268185;accel/kr3dh;0.0 -0.027240695 9.79303 3
1354234504573268185;linaccel/Linear Acceleration Sensor;0.0986516 -0.0013748948 -0.048401833 3
1354234504573238185;orientation/AK8973 Compass;178.96875 0.171875 -0.0 1
1354234504667812185;compass/AK8973 Magnetic Field;0.25 -4.5 13.0625 3
1354234504667781185;orientation/AK8973 Compass;179.32813 0.171875 -0.484375 1
1354234504667781185;accel/kr3dh;-0.08172209 -0.027240695 9.765789 3
1354234504667781185;linaccel/Linear Acceleration Sensor;0.0071957186 -0.0063300524 -0.07633972 3
1354234504761012185;compass/AK8973 Magnetic Field;0.0 -5.0 13.5625 3
1354234504760951185;accel/kr3dh;-0.095342435 -0.0 9.833891 3
1354234504760951185;linaccel/Linear Acceleration Sensor;-0.017195545 0.021152839 0.0010519028 3
1354234504760921185;orientation/AK8973 Compass;179.46875 0.0 -0.5625 1
1354234504864589185;compass/AK8973 Magnetic Field;0.25 -5.0 13.8125 3
1354234504864558185;accel/kr3dh;-0.14982383 0.05448139 9.80665 3
1354234504864558185;linaccel/Linear Acceleration Sensor;-0.07975452 0.07549345 -0.009796143 3
1354234504864528185;orientation/AK8973 Compass;179.82813 -0.3125 -0.875 1
1354234504959743185;orientation/AK8973 Compass;183.40625 0.171875 -0.3125 1
1354234504959743185;accel/kr3dh;-0.05448139 -0.027240695 9.80665 3
1354234504959743185;compass/AK8973 Magnetic Field;0.5 -4.75 14.125 3
1354234504959743185;linaccel/Linear Acceleration Sensor;0.019571964 -0.013103106 0.001291275 3
1354234505057399185;compass/AK8973 Magnetic Field;0.0 -4.5 14.125 3
1354234505057368185;accel/kr3dh;-0.040861044 -0.06810174 9.861132 3
1354234505057368185;linaccel/Linear Acceleration Sensor;0.045748454 -0.06530397 0.057692528 3
1354234505057307185;orientation/AK8973 Compass;183.23438 0.390625 -0.21875 1
1354234505154506185;compass/AK8973 Magnetic Field;0.25 -4.25 13.5625 3
1354234505154475185;accel/kr3dh;-0.12258313 -0.05448139 9.80665 3
1354234505154475185;linaccel/Linear Acceleration Sensor;-0.02928967 -0.054677702 -0.0025596619 3
1354234505154414185;orientation/AK8973 Compass;183.39063 0.3125 -0.734375 1
1354234505196132569;wifi;00:23:04:89:cd:b2,UNKNOWN,-65 00:17:df:a7:33:12,UNKNOWN,-76 00:22:90:39:07:12,UNKNOWN,-80 28:cf:da:b8:1e:d5,UNKNOWN,-84 00:17:df:a7:4c:f2,UNKNOWN,-85 b8:c7:5d:08:bd:fd,UNKNOWN,-85 00:23:04:89:cd:b5,UNKNOWN,-73 00:17:df:a7:33:15,UNKNOWN,-75 00:22:90:39:07:15,UNKNOWN,-86 00:23:04:89:cd:b1,UNKNOWN,-64 00:23:04:89:cd:b0,UNKNOWN,-64 00:23:04:89:cd:b6,UNKNOWN,-73 00:17:df:a7:33:10,UNKNOWN,-75 00:17:df:a7:33:11,UNKNOWN,-77 00:22:90:39:07:11,UNKNOWN,-79 00:17:df:a7:4c:f1,UNKNOWN,-84 00:22:90:39:07:16,UNKNOWN,-85 00:17:df:a8:60:61,UNKNOWN,-88 
1354234505212000000;rawNmea;$GPGSV,4,1,13,03,33,241,24,06,33,220,28,14,77,160,15,18,34,066,17*7E
1354234505217000000;rawNmea;$GPGSV,4,2,13,19,42,277,26,01,01,310,,09,11,042,,11,16,310,*7D
1354234505219000000;rawNmea;$GPGSV,4,3,13,21,19,127,,22,66,023,,24,14,049,,31,00,171,*79
1354234505222000000;rawNmea;$GPGSV,4,4,13,32,08,265,*43
1354234505228000000;rawNmea;$GPGGA,001504.0,3752.503545,N,12215.508689,W,1,05,2.0,126.2,M,-26.0,M,,*69
1354234505232000000;rawNmea;$GPVTG,307.6,T,307.6,M,0.0,N,0.0,K,A*23
1354234505235000000;rawNmea;$GPRMC,001504.0,A,3752.503545,N,12215.508689,W,0.0,307.6,301112,,,A*70
1354234505238000000;rawNmea;$GPGSA,A,3,03,06,14,18,19,,,,,,,,3.4,2.0,2.7*33
1354234504000000000;latLngE7Gps;378750590 -1222584781 148.0 -1.0 0.0
1354234505251369185;orientation/AK8973 Compass;183.23438 0.171875 -0.3125 1
1354234505251369185;accel/kr3dh;-0.05448139 -0.027240695 9.79303 3
1354234505251369185;compass/AK8973 Magnetic Field;0.0 -4.25 13.0625 3
1354234505251369185;linaccel/Linear Acceleration Sensor;0.034819078 -0.015245845 -0.024941444 3
1354234505347499185;accel/kr3dh;-0.14982383 -0.0 9.779409 3
1354234505347499185;compass/AK8973 Magnetic Field;-0.25 -3.75 12.8125 3
1354234505347499185;linaccel/Linear Acceleration Sensor;-0.06684329 0.030448258 -0.04280281 3
1354234505347469185;orientation/AK8973 Compass;182.98438 0.0 -0.875 1
1354234505443965185;compass/AK8973 Magnetic Field;0.0 -3.4375 12.8125 3
1354234505443935185;accel/kr3dh;-0.095342435 -0.0 9.833891 3
1354234505443935185;linaccel/Linear Acceleration Sensor;-0.012152873 0.040440936 0.016392708 3
1354234505443904185;orientation/AK8973 Compass;182.92188 0.0 -0.5625 1
1354234505540919185;compass/AK8973 Magnetic Field;0.25 -3.4375 13.0625 3
1354234505540889185;accel/kr3dh;-0.095342435 -0.013620348 9.697687 3
1354234505540889185;linaccel/Linear Acceleration Sensor;-0.0040182024 0.021956842 -0.10902119 3
1354234505540828185;orientation/AK8973 Compass;183.14063 0.078125 -0.5625 1
1354234505642024185;accel/kr3dh;-0.12258313 -0.027240695 9.820271 3
